<?xml version="1.0" encoding="UTF-8"?>
<votingplaces>
    <votingplace vp_id="361" vp_e_no="37">
        <vp_address>Mobile Team, Team 1, Taken in Panmure-Ōtāhuhu</vp_address>
        <vp_lat></vp_lat>
        <vp_lon></vp_lon>
    </votingplace>
    <votingplace vp_id="362" vp_e_no="38">
        <vp_address>Kawakawa Bay Public Hall, 9 Kawakawa-Orere Road, Kawakawa Bay</vp_address>
        <vp_lat>-36.950050406009325</vp_lat>
        <vp_lon>175.1703876225217</vp_lon>
    </votingplace>
    <votingplace vp_id="363" vp_e_no="41">
        <vp_address>Care Homes, Team 1, Taken in Rangitīkei</vp_address>
        <vp_lat></vp_lat>
        <vp_lon></vp_lon>
    </votingplace>
    <votingplace vp_id="366" vp_e_no="47">
        <vp_address>Big Rock School, 2 Bath Street, Brighton</vp_address>
        <vp_lat>-45.94916119077629</vp_lat>
        <vp_lon>170.3297891724807</vp_lon>
    </votingplace>
    <votingplace vp_id="367" vp_e_no="16">
        <vp_address>Windsor Community Church, 19 Windsor Street, Invercargill</vp_address>
        <vp_lat>-46.39707032</vp_lat>
        <vp_lon>168.3658606</vp_lon>
    </votingplace>
    <votingplace vp_id="368" vp_e_no="54">
        <vp_address>Mangateretere School Hall, 314 State Highway 51, Mangateretere</vp_address>
        <vp_lat>-39.61737</vp_lat>
        <vp_lon>176.89334</vp_lon>
    </votingplace>
    <votingplace vp_id="370" vp_e_no="8">
        <vp_address>University of Otago, ISB Link, 65 Albany Street, Dunedin North</vp_address>
        <vp_lat>-45.866505119628975</vp_lat>
        <vp_lon>170.51259266035106</vp_lon>
    </votingplace>
    <votingplace vp_id="371" vp_e_no="9">
        <vp_address>Cobham School, 264A Lytton Road, Gisborne</vp_address>
        <vp_lat>-38.6606195</vp_lat>
        <vp_lon>177.9944798</vp_lon>
    </votingplace>
    <votingplace vp_id="372" vp_e_no="9">
        <vp_address>Old Raukokore School, 10104 State Highway 35, Raukokore</vp_address>
        <vp_lat>-37.63227597201775</vp_lat>
        <vp_lon>177.88574087374658</vp_lon>
    </votingplace>
    <votingplace vp_id="373" vp_e_no="47">
        <vp_address>Caversham Harrier &amp; Athletic Clubrooms, 201 Middleton Road, Corstorphine</vp_address>
        <vp_lat>-45.908867</vp_lat>
        <vp_lon>170.472463</vp_lon>
    </votingplace>
    <votingplace vp_id="374" vp_e_no="2">
        <vp_address>Te Waka Unua School Hall, 476 Ferry Road (corner Ferry Road &amp; Hopkins Street), Woolston</vp_address>
        <vp_lat>-43.54556646</vp_lat>
        <vp_lon>172.672217</vp_lon>
    </votingplace>
    <votingplace vp_id="376" vp_e_no="14">
        <vp_address>Petone Library and Heritage Centre, 7 Britannia Street, Petone</vp_address>
        <vp_lat>-41.22456713</vp_lat>
        <vp_lon>174.8793998</vp_lon>
    </votingplace>
    <votingplace vp_id="377" vp_e_no="1">
        <vp_address>Aotea Health, Fitzroy Nurses Cottage, 2077 Aotea Road, Port Fitzroy</vp_address>
        <vp_lat>-36.16442133698877</vp_lat>
        <vp_lon>175.36283028339042</vp_lon>
    </votingplace>
    <votingplace vp_id="378" vp_e_no="1">
        <vp_address>Mulberry Grove School, 271 Shoal Bay Road, Tryphena</vp_address>
        <vp_lat>-36.31263529</vp_lat>
        <vp_lon>175.4948217</vp_lon>
    </votingplace>
    <votingplace vp_id="379" vp_e_no="47">
        <vp_address>Reid Park Kindergarten, 63 Murray Street, Mosgiel</vp_address>
        <vp_lat>-45.86722168</vp_lat>
        <vp_lon>170.3551419</vp_lon>
    </votingplace>
    <votingplace vp_id="380" vp_e_no="1">
        <vp_address>All Saints Anglican Church, 284 Ponsonby Road, Ponsonby</vp_address>
        <vp_lat>-36.84965349031145</vp_lat>
        <vp_lon>174.74381973319473</vp_lon>
    </votingplace>
    <votingplace vp_id="381" vp_e_no="8">
        <vp_address>Te Rūnanga o Ōtākou, Ōtākou Marae, 45 Tamatea Road, Otakou</vp_address>
        <vp_lat>-45.802931312412646</vp_lat>
        <vp_lon>170.71157523172616</vp_lon>
    </votingplace>
    <votingplace vp_id="382" vp_e_no="47">
        <vp_address>East Taieri School, 11 Cemetery Road, East Taieri</vp_address>
        <vp_lat>-45.88940202892976</vp_lat>
        <vp_lon>170.34636381766728</vp_lon>
    </votingplace>
    <votingplace vp_id="383" vp_e_no="47">
        <vp_address>Elmgrove School, Ayr Street entrance, Mosgiel</vp_address>
        <vp_lat>-45.87963</vp_lat>
        <vp_lon>170.34507</vp_lon>
    </votingplace>
    <votingplace vp_id="385" vp_e_no="1">
        <vp_address>Okiwi School, 1606-1608 Aotea Road, Great Barrier Island</vp_address>
        <vp_lat>-36.15490483</vp_lat>
        <vp_lon>175.3943915</vp_lon>
    </votingplace>
    <votingplace vp_id="386" vp_e_no="6">
        <vp_address>Legacy Community Church, 54 Bassett Street, Burwood</vp_address>
        <vp_lat>-43.4962355</vp_lat>
        <vp_lon>172.6891608</vp_lon>
    </votingplace>
    <votingplace vp_id="388" vp_e_no="21">
        <vp_address>Hospital and Care Homes, Team 1, Taken in Māngere</vp_address>
        <vp_lat></vp_lat>
        <vp_lon></vp_lon>
    </votingplace>
    <votingplace vp_id="389" vp_e_no="15">
        <vp_address>Te Ara Maurea Roydvale School Hall, 117 Roydvale Avenue, Burnside</vp_address>
        <vp_lat>-43.494345653225274</vp_lat>
        <vp_lon>172.56318845258852</vp_lon>
    </votingplace>
    <votingplace vp_id="390" vp_e_no="13">
        <vp_address>Good News Community Centre, 78 Breckons Avenue, Nawton</vp_address>
        <vp_lat>-37.77602911</vp_lat>
        <vp_lon>175.2365899</vp_lon>
    </votingplace>
    <votingplace vp_id="391" vp_e_no="11">
        <vp_address>Remuera Intermediate School, 55 Ascot Avenue, Remuera</vp_address>
        <vp_lat>-36.88629794533983</vp_lat>
        <vp_lon>174.80000471651707</vp_lon>
    </votingplace>
    <votingplace vp_id="392" vp_e_no="13">
        <vp_address>Kai Hall, 485 Tuhikaramea Road, Templeview</vp_address>
        <vp_lat>-37.82328620595818</vp_lat>
        <vp_lon>175.22745411022137</vp_lon>
    </votingplace>
    <votingplace vp_id="393" vp_e_no="17">
        <vp_address>Rapaura Hall, 348 Hammerichs Road, Rapaura</vp_address>
        <vp_lat>-41.47304</vp_lat>
        <vp_lon>173.90253</vp_lon>
    </votingplace>
    <votingplace vp_id="394" vp_e_no="8">
        <vp_address>Dunedin Hospital, 1st Floor, Octagonal Room, 201 Great King Street, Central Dunedin</vp_address>
        <vp_lat>-45.86889012418852</vp_lat>
        <vp_lon>170.50838626694727</vp_lon>
    </votingplace>
    <votingplace vp_id="395" vp_e_no="6">
        <vp_address>Ottawa Gardens Preschool, 49 Ottawa Road, Wainoni</vp_address>
        <vp_lat>-43.51957821</vp_lat>
        <vp_lon>172.6905631</vp_lon>
    </votingplace>
    <votingplace vp_id="396" vp_e_no="1">
        <vp_address>Richmond Road School, 113 Richmond Road, Grey Lynn</vp_address>
        <vp_lat>-36.85616367</vp_lat>
        <vp_lon>174.7397767</vp_lon>
    </votingplace>
    <votingplace vp_id="397" vp_e_no="17">
        <vp_address>Mariners Mall, Shop 17, 100 High Street, Picton</vp_address>
        <vp_lat>-41.29170695259634</vp_lat>
        <vp_lon>174.0072042068399</vp_lon>
    </votingplace>
    <votingplace vp_id="400" vp_e_no="59">
        <vp_address>Waihemo Service Centre, 54 Tiverton Street, Palmerston</vp_address>
        <vp_lat>-45.48357883277756</vp_lat>
        <vp_lon>170.71492868778057</vp_lon>
    </votingplace>
    <votingplace vp_id="401" vp_e_no="14">
        <vp_address>Wainuiomata Intermediate School, 66 Konini Street, Wainuiomata</vp_address>
        <vp_lat>-41.25265046</vp_lat>
        <vp_lon>174.9330097</vp_lon>
    </votingplace>
    <votingplace vp_id="402" vp_e_no="15">
        <vp_address>Avonhead Kindergarten, 49 Staveley Street, Avonhead</vp_address>
        <vp_lat>-43.52005637</vp_lat>
        <vp_lon>172.5561494</vp_lon>
    </votingplace>
    <votingplace vp_id="404" vp_e_no="21">
        <vp_address>Te Kura Kaupapa Māori a Rohe o Māngere, 7 Comet Crescent, Māngere</vp_address>
        <vp_lat>-36.96461054</vp_lat>
        <vp_lon>174.7965139</vp_lon>
    </votingplace>
    <votingplace vp_id="405" vp_e_no="13">
        <vp_address>Melville Methodist Church Hall, 4 Bader Street, Melville</vp_address>
        <vp_lat>-37.80875495</vp_lat>
        <vp_lon>175.2866533</vp_lon>
    </votingplace>
    <votingplace vp_id="406" vp_e_no="24">
        <vp_address>Greek Community and Orthodox Parish of Auckland, 106-108 Western Springs Road, Western Springs</vp_address>
        <vp_lat>-36.87129048</vp_lat>
        <vp_lon>174.726797</vp_lon>
    </votingplace>
    <votingplace vp_id="407" vp_e_no="37">
        <vp_address>Ruapotaka Primary School, 10A Taratoa Street, Panmure</vp_address>
        <vp_lat>-36.88798271</vp_lat>
        <vp_lon>174.8605504</vp_lon>
    </votingplace>
    <votingplace vp_id="408" vp_e_no="37">
        <vp_address>Panmure Bridge Primary School, 76 Kings Road, Panmure</vp_address>
        <vp_lat>-36.90168941</vp_lat>
        <vp_lon>174.8638243</vp_lon>
    </votingplace>
    <votingplace vp_id="409" vp_e_no="20">
        <vp_address>Maraeroa School Hall, 47 Driver Crescent, Cannons Creek</vp_address>
        <vp_lat>-41.14069377</vp_lat>
        <vp_lon>174.8722267</vp_lon>
    </votingplace>
    <votingplace vp_id="410" vp_e_no="26">
        <vp_address>Patoka School, (corner Hendley Road &amp; Puketitiri Road), Patoka</vp_address>
        <vp_lat>-39.34681479032318</vp_lat>
        <vp_lon>176.60491801005276</vp_lon>
    </votingplace>
    <votingplace vp_id="411" vp_e_no="20">
        <vp_address>The Anchor Church, 1 Joseph Banks Drive, Whitby</vp_address>
        <vp_lat>-41.1084455</vp_lat>
        <vp_lon>174.9022172</vp_lon>
    </votingplace>
    <votingplace vp_id="412" vp_e_no="49">
        <vp_address>Glen Innes School, 38-42 Eastview Road, Glen Innes</vp_address>
        <vp_lat>-36.87383978</vp_lat>
        <vp_lon>174.8564359</vp_lon>
    </votingplace>
    <votingplace vp_id="413" vp_e_no="15">
        <vp_address>St Ninian&#39;s Presbyterian Church Hall, 5 Puriri Street, Riccarton</vp_address>
        <vp_lat>-43.52983749079773</vp_lat>
        <vp_lon>172.59144764409632</vp_lon>
    </votingplace>
    <votingplace vp_id="414" vp_e_no="59">
        <vp_address>Herbert Public Hall, 13 Tain Street, Herbert</vp_address>
        <vp_lat>-45.2251</vp_lat>
        <vp_lon>170.78253</vp_lon>
    </votingplace>
    <votingplace vp_id="415" vp_e_no="17">
        <vp_address>Bright Centre, 2 Dillons Point Road, Blenheim</vp_address>
        <vp_lat>-41.50875</vp_lat>
        <vp_lon>173.96124</vp_lon>
    </votingplace>
    <votingplace vp_id="416" vp_e_no="19">
        <vp_address>Avondale Intermediate School Hall, 12 Holly Street, Avondale</vp_address>
        <vp_lat>-36.89049095935372</vp_lat>
        <vp_lon>174.69230625342016</vp_lon>
    </votingplace>
    <votingplace vp_id="417" vp_e_no="37">
        <vp_address>Point England Primary School, 130 Point England Road, Point England</vp_address>
        <vp_lat>-36.88241022</vp_lat>
        <vp_lon>174.8669313</vp_lon>
    </votingplace>
    <votingplace vp_id="418" vp_e_no="20">
        <vp_address>Whitireia New Zealand, Room WK136, 3 Wi Neera Drive, Porirua City Centre</vp_address>
        <vp_lat>-41.125954</vp_lat>
        <vp_lon>174.837866</vp_lon>
    </votingplace>
    <votingplace vp_id="419" vp_e_no="16">
        <vp_address>Myross Bush Community Hall, 238 Mill Road North, Myross Bush</vp_address>
        <vp_lat>-46.378058250614416</vp_lat>
        <vp_lon>168.41676941302154</vp_lon>
    </votingplace>
    <votingplace vp_id="420" vp_e_no="61">
        <vp_address>Upper Moutere School Hall, Main Road, Upper Moutere</vp_address>
        <vp_lat>-41.2702707282286</vp_lat>
        <vp_lon>173.00532439018318</vp_lon>
    </votingplace>
    <votingplace vp_id="422" vp_e_no="47">
        <vp_address>Nations Church, 334 King Edward Street, South Dunedin</vp_address>
        <vp_lat>-45.89715068281788</vp_lat>
        <vp_lon>170.50226743502427</vp_lon>
    </votingplace>
    <votingplace vp_id="423" vp_e_no="17">
        <vp_address>Waiau School, 11 Montrose Street (corner Leslie Street), Waiau</vp_address>
        <vp_lat>-42.65405</vp_lat>
        <vp_lon>173.04224</vp_lon>
    </votingplace>
    <votingplace vp_id="424" vp_e_no="17">
        <vp_address>Rotherham School Library, 71 George Street, Rotherham</vp_address>
        <vp_lat>-42.69894</vp_lat>
        <vp_lon>172.94368</vp_lon>
    </votingplace>
    <votingplace vp_id="425" vp_e_no="22">
        <vp_address>PAK&#39;nSAVE Clendon, 16 Robert Ross Place, Clendon Park</vp_address>
        <vp_lat>-37.03258389734281</vp_lat>
        <vp_lon>174.86718080469234</vp_lon>
    </votingplace>
    <votingplace vp_id="426" vp_e_no="34">
        <vp_address>Te Takeretanga o Kura-hau-pō - Levin Public Library, 10 Bath Street, Levin</vp_address>
        <vp_lat>-40.623138328097255</vp_lat>
        <vp_lon>175.28401605239057</vp_lon>
    </votingplace>
    <votingplace vp_id="427" vp_e_no="34">
        <vp_address>Kapakapanui School Hall, 23 Rimu Street, Waikanae</vp_address>
        <vp_lat>-40.87287642908127</vp_lat>
        <vp_lon>175.0549600996724</vp_lon>
    </votingplace>
    <votingplace vp_id="428" vp_e_no="34">
        <vp_address>Waikanae Primary School Hall, 27 Seddon Street, Waikanae</vp_address>
        <vp_lat>-40.876768</vp_lat>
        <vp_lon>175.069573</vp_lon>
    </votingplace>
    <votingplace vp_id="431" vp_e_no="34">
        <vp_address>Waikanae Baptist Church, 286 Te Moana Road, Waikanae</vp_address>
        <vp_lat>-40.876318108009926</vp_lat>
        <vp_lon>175.04283206773312</vp_lon>
    </votingplace>
    <votingplace vp_id="432" vp_e_no="44">
        <vp_address>Whangamarino School, 637 State Highway 33, Okere Falls</vp_address>
        <vp_lat>-38.02662510146097</vp_lat>
        <vp_lon>176.34355873021207</vp_lon>
    </votingplace>
    <votingplace vp_id="434" vp_e_no="30">
        <vp_address>Mairangi and Castor Bays Presbyterian Church Hall, 10 Penzance Road, Mairangi Bay</vp_address>
        <vp_lat>-36.73905084643039</vp_lat>
        <vp_lon>174.75138183285065</vp_lon>
    </votingplace>
    <votingplace vp_id="435" vp_e_no="50">
        <vp_address>Kawhia Community Hall, 141 Jervois Street, Kawhia</vp_address>
        <vp_lat>-38.06494223</vp_lat>
        <vp_lon>174.8228403</vp_lon>
    </votingplace>
    <votingplace vp_id="436" vp_e_no="40">
        <vp_address>Ashburton Intermediate School, 144 Cass Street, Ashburton</vp_address>
        <vp_lat>-43.90054294837718</vp_lat>
        <vp_lon>171.75871565546183</vp_lon>
    </votingplace>
    <votingplace vp_id="437" vp_e_no="44">
        <vp_address>Lake Tarawera Community Hall, 475 Spencer Road, Lake Tarawera</vp_address>
        <vp_lat>-38.168280</vp_lat>
        <vp_lon>176.391267</vp_lon>
    </votingplace>
    <votingplace vp_id="439" vp_e_no="7">
        <vp_address>Tapu School, 719 Thames Coast Road, Tapu</vp_address>
        <vp_lat>-36.98531161652141</vp_lat>
        <vp_lon>175.50122737884521</vp_lon>
    </votingplace>
    <votingplace vp_id="440" vp_e_no="7">
        <vp_address>Matarangi Fire Station, 201B Matarangi Drive, Matarangi</vp_address>
        <vp_lat>-36.73336627</vp_lat>
        <vp_lon>175.6618936</vp_lon>
    </votingplace>
    <votingplace vp_id="441" vp_e_no="45">
        <vp_address>Motukarara Community Hall, 112 Park Road, Motukarara</vp_address>
        <vp_lat>-43.726837186866724</vp_lat>
        <vp_lon>172.58251612405863</vp_lon>
    </votingplace>
    <votingplace vp_id="442" vp_e_no="9">
        <vp_address>Kawerau Concert Chambers, Ranfurly Court, Kawerau</vp_address>
        <vp_lat>-38.08673945</vp_lat>
        <vp_lon>176.7018704</vp_lon>
    </votingplace>
    <votingplace vp_id="444" vp_e_no="15">
        <vp_address>St Margaret&#39;s Presbyterian Church, The Hub, 94 Farrington Avenue, Bishopdale</vp_address>
        <vp_lat>-43.4915919434873</vp_lat>
        <vp_lon>172.58622944355</vp_lon>
    </votingplace>
    <votingplace vp_id="445" vp_e_no="13">
        <vp_address>Hamilton Junior High School, 90 Heath Street, St Andrews</vp_address>
        <vp_lat>-37.75517649</vp_lat>
        <vp_lon>175.2540861</vp_lon>
    </votingplace>
    <votingplace vp_id="446" vp_e_no="49">
        <vp_address>Mission Bay Guide Hall, 87 Patteson Avenue, Mission Bay</vp_address>
        <vp_lat>-36.85573257153342</vp_lat>
        <vp_lon>174.82954923194995</vp_lon>
    </votingplace>
    <votingplace vp_id="447" vp_e_no="43">
        <vp_address>Wellington Chinese Baptist Church Hall, 24 Donald McLean Street, Newtown</vp_address>
        <vp_lat>-41.315421422870656</vp_lat>
        <vp_lon>174.78206127920677</vp_lon>
    </votingplace>
    <votingplace vp_id="448" vp_e_no="8">
        <vp_address>Karitāne Primary School, 183 Coast Road, Karitāne</vp_address>
        <vp_lat>-45.644547852279715</vp_lat>
        <vp_lon>170.65606319860595</vp_lon>
    </votingplace>
    <votingplace vp_id="449" vp_e_no="8">
        <vp_address>Sawyers Bay School, 99 Stevenson Avenue, Sawyers Bay</vp_address>
        <vp_lat>-45.81974078</vp_lat>
        <vp_lon>170.6012122</vp_lon>
    </votingplace>
    <votingplace vp_id="451" vp_e_no="36">
        <vp_address>St Peter&#39;s College, 1 Holdsworth Avenue, Milson</vp_address>
        <vp_lat>-40.334100244447264</vp_lat>
        <vp_lon>175.60505269952444</vp_lon>
    </votingplace>
    <votingplace vp_id="452" vp_e_no="39">
        <vp_address>Meremere School, 23 Heather Green Avenue, Meremere</vp_address>
        <vp_lat>-37.317844141112545</vp_lat>
        <vp_lon>175.07352347694192</vp_lon>
    </votingplace>
    <votingplace vp_id="453" vp_e_no="47">
        <vp_address>Carisbrook School, 217 South Road, Caversham</vp_address>
        <vp_lat>-45.89523528</vp_lat>
        <vp_lon>170.4839515</vp_lon>
    </votingplace>
    <votingplace vp_id="454" vp_e_no="8">
        <vp_address>Grant&#39;s Braes School, 137 Belford Street, Waverley</vp_address>
        <vp_lat>-45.88478053</vp_lat>
        <vp_lon>170.5339694</vp_lon>
    </votingplace>
    <votingplace vp_id="455" vp_e_no="51">
        <vp_address>Putaruru Bridge Club, 3 Overdale Street, Putāruru</vp_address>
        <vp_lat>-38.050707899485694</vp_lat>
        <vp_lon>175.77858828032885</vp_lon>
    </votingplace>
    <votingplace vp_id="458" vp_e_no="33">
        <vp_address>Tawa Community Centre, 5 Cambridge Street, Tawa</vp_address>
        <vp_lat>-41.17070921414097</vp_lat>
        <vp_lon>174.82599686774563</vp_lon>
    </votingplace>
    <votingplace vp_id="459" vp_e_no="56">
        <vp_address>Newstead School, 429 Morrinsville Road, Newstead</vp_address>
        <vp_lat>-37.776929</vp_lat>
        <vp_lon>175.360350</vp_lon>
    </votingplace>
    <votingplace vp_id="460" vp_e_no="41">
        <vp_address>St Andrew&#39;s Presbyterian Church Hall, 226 Broadway, Marton</vp_address>
        <vp_lat>-40.06618654578177</vp_lat>
        <vp_lon>175.3788881265835</vp_lon>
    </votingplace>
    <votingplace vp_id="461" vp_e_no="50">
        <vp_address>Kaipaki School Library, 687 Kaipaki Road, Kaipaki</vp_address>
        <vp_lat>-37.88731605800864</vp_lat>
        <vp_lon>175.38655085622685</vp_lon>
    </votingplace>
    <votingplace vp_id="462" vp_e_no="58">
        <vp_address>Woodville School Hall, 87 Vogel Street, access from Bevan Street, Woodville</vp_address>
        <vp_lat>-40.337811</vp_lat>
        <vp_lon>175.870958</vp_lon>
    </votingplace>
    <votingplace vp_id="463" vp_e_no="56">
        <vp_address>Hinuera School, (corner State Highway 29 &amp; Hinuera Road), Hinuera</vp_address>
        <vp_lat>-37.88061132211138</vp_lat>
        <vp_lon>175.7582267455827</vp_lon>
    </votingplace>
    <votingplace vp_id="465" vp_e_no="36">
        <vp_address>Te Manawa Museum, 326 Main Street, Palmerston North Central</vp_address>
        <vp_lat>-40.358155</vp_lat>
        <vp_lon>175.608033</vp_lon>
    </votingplace>
    <votingplace vp_id="466" vp_e_no="41">
        <vp_address>Awahuri Hall, 1641 State Highway 3, Awahuri</vp_address>
        <vp_lat>-40.27146734</vp_lat>
        <vp_lon>175.5120755</vp_lon>
    </votingplace>
    <votingplace vp_id="467" vp_e_no="50">
        <vp_address>Puahue School, 573 Puahue Road, Puahue</vp_address>
        <vp_lat>-38.036815468910355</vp_lat>
        <vp_lon>175.4085816941478</vp_lon>
    </votingplace>
    <votingplace vp_id="468" vp_e_no="49">
        <vp_address>St John&#39;s Theological College, Wesley Hall, 202-210 St John&#39;s Road, St Johns</vp_address>
        <vp_lat>-36.8740440820978</vp_lat>
        <vp_lon>174.8411311611773</vp_lon>
    </votingplace>
    <votingplace vp_id="469" vp_e_no="56">
        <vp_address>Matamata Primary School, 115A Broadway, Matamata</vp_address>
        <vp_lat>-37.81160971345991</vp_lat>
        <vp_lon>175.7771176296298</vp_lon>
    </votingplace>
    <votingplace vp_id="470" vp_e_no="41">
        <vp_address>Stanway Public Hall, 1901 Makino Road, Halcombe</vp_address>
        <vp_lat>-40.09944542061241</vp_lat>
        <vp_lon>175.54628085923554</vp_lon>
    </votingplace>
    <votingplace vp_id="471" vp_e_no="42">
        <vp_address>Care Homes, Team 2, Taken in Remutaka</vp_address>
        <vp_lat></vp_lat>
        <vp_lon></vp_lon>
    </votingplace>
    <votingplace vp_id="472" vp_e_no="15">
        <vp_address>Care Homes Team, Team 1, Taken in Ilam</vp_address>
        <vp_lat></vp_lat>
        <vp_lon></vp_lon>
    </votingplace>
    <votingplace vp_id="473" vp_e_no="16">
        <vp_address>Donovan Primary School, 200 Drury Lane, Invercargill</vp_address>
        <vp_lat>-46.37838057</vp_lat>
        <vp_lon>168.3407716</vp_lon>
    </votingplace>
    <votingplace vp_id="474" vp_e_no="16">
        <vp_address>Waihopai School Hall, 121 Herbert Street, Invercargill</vp_address>
        <vp_lat>-46.39535856</vp_lat>
        <vp_lon>168.3545781</vp_lon>
    </votingplace>
    <votingplace vp_id="476" vp_e_no="16">
        <vp_address>St John&#39;s Girls&#39; School, 349 Dee Street, Invercargill</vp_address>
        <vp_lat>-46.39807618</vp_lat>
        <vp_lon>168.347583</vp_lon>
    </votingplace>
    <votingplace vp_id="477" vp_e_no="22">
        <vp_address>Prison Team (ARWCF), Team 1, Taken in Manurewa</vp_address>
        <vp_lat></vp_lat>
        <vp_lon></vp_lon>
    </votingplace>
    <votingplace vp_id="478" vp_e_no="28">
        <vp_address>Care Homes, Team 1, Taken in New Lynn</vp_address>
        <vp_lat></vp_lat>
        <vp_lon></vp_lon>
    </votingplace>
    <votingplace vp_id="479" vp_e_no="31">
        <vp_address>Care Homes, Team 1, Taken in Northcote</vp_address>
        <vp_lat></vp_lat>
        <vp_lon></vp_lon>
    </votingplace>
    <votingplace vp_id="480" vp_e_no="15">
        <vp_address>St Paul&#39;s Anglican Church Parish Hall, 1 Harewood Road, Papanui</vp_address>
        <vp_lat>-43.49723260487396</vp_lat>
        <vp_lon>172.60720532983393</vp_lon>
    </votingplace>
    <votingplace vp_id="482" vp_e_no="43">
        <vp_address>Chatham Islands Council Building, 9 Tuku Road, Waitangi, Chatham Islands</vp_address>
        <vp_lat>-43.952435759812374</vp_lat>
        <vp_lon>-176.56142269498866</vp_lon>
    </votingplace>
    <votingplace vp_id="484" vp_e_no="32">
        <vp_address>Care Homes, Team 1, Taken in Northland</vp_address>
        <vp_lat></vp_lat>
        <vp_lon></vp_lon>
    </votingplace>
    <votingplace vp_id="485" vp_e_no="44">
        <vp_address>Care Homes Team, Team 1, Taken in Rotorua</vp_address>
        <vp_lat></vp_lat>
        <vp_lon></vp_lon>
    </votingplace>
    <votingplace vp_id="486" vp_e_no="45">
        <vp_address>Hospital and Care Homes Team, Team 2, Taken in Selwyn</vp_address>
        <vp_lat></vp_lat>
        <vp_lon></vp_lon>
    </votingplace>
    <votingplace vp_id="487" vp_e_no="55">
        <vp_address>Care Homes Team, Team 1, Taken in Upper Harbour</vp_address>
        <vp_lat></vp_lat>
        <vp_lon></vp_lon>
    </votingplace>
    <votingplace vp_id="488" vp_e_no="59">
        <vp_address>Hospital and Care Homes, Team 1, Taken in Waitaki</vp_address>
        <vp_lat></vp_lat>
        <vp_lon></vp_lon>
    </votingplace>
    <votingplace vp_id="489" vp_e_no="16">
        <vp_address>Care Homes, Team 1, Taken in Invercargill</vp_address>
        <vp_lat></vp_lat>
        <vp_lon></vp_lon>
    </votingplace>
    <votingplace vp_id="490" vp_e_no="59">
        <vp_address>Cattle Creek Hall, 3321 Hakataramea Valley Road, Cattle Creek</vp_address>
        <vp_lat>-44.51017164</vp_lat>
        <vp_lon>170.6747961</vp_lon>
    </votingplace>
    <votingplace vp_id="491" vp_e_no="59">
        <vp_address>Makarora School, 31 Rata Road, Makarora</vp_address>
        <vp_lat>-44.23409825344782</vp_lat>
        <vp_lon>169.23366453538492</vp_lon>
    </votingplace>
    <votingplace vp_id="492" vp_e_no="16">
        <vp_address>Otatara Community Centre, 146 Dunns Road, Otatara</vp_address>
        <vp_lat>-46.431475</vp_lat>
        <vp_lon>168.2905605</vp_lon>
    </votingplace>
    <votingplace vp_id="493" vp_e_no="60">
        <vp_address>Care Homes Team, Team 1, Taken in Wellington Central</vp_address>
        <vp_lat></vp_lat>
        <vp_lon></vp_lon>
    </votingplace>
    <votingplace vp_id="494" vp_e_no="36">
        <vp_address>Hospital and Care Homes, Team 1, Taken in Palmerston North</vp_address>
        <vp_lat></vp_lat>
        <vp_lon></vp_lon>
    </votingplace>
    <votingplace vp_id="495" vp_e_no="50">
        <vp_address>Care Homes Team, Team 1, Taken in Taranaki-King Country</vp_address>
        <vp_lat></vp_lat>
        <vp_lon></vp_lon>
    </votingplace>
    <votingplace vp_id="496" vp_e_no="39">
        <vp_address>Tuakau Town Hall, 70 George Street, Tuakau</vp_address>
        <vp_lat>-37.260041098204546</vp_lat>
        <vp_lon>174.94563055796198</vp_lon>
    </votingplace>
    <votingplace vp_id="497" vp_e_no="65">
        <vp_address>South West Baptist Church, Cobham Hall, 51 Cobham Street, Spreydon</vp_address>
        <vp_lat>-43.5557547</vp_lat>
        <vp_lon>172.60853</vp_lon>
    </votingplace>
    <votingplace vp_id="499" vp_e_no="52">
        <vp_address>Greerton Community Hall, 1247 Cameron Road, Greerton</vp_address>
        <vp_lat>-37.724676027884584</vp_lat>
        <vp_lon>176.13337214624883</vp_lon>
    </votingplace>
    <votingplace vp_id="500" vp_e_no="65">
        <vp_address>Addington School Te Kura Taumatua Hall, 17-22 Somerset Crescent, Addington</vp_address>
        <vp_lat>-43.548640950656875</vp_lat>
        <vp_lon>172.61923570153962</vp_lon>
    </votingplace>
    <votingplace vp_id="501" vp_e_no="65">
        <vp_address>Christchurch South Karamata Intermediate Hall, 204 Selwyn Street, Spreydon</vp_address>
        <vp_lat>-43.5522463</vp_lat>
        <vp_lon>172.6255044</vp_lon>
    </votingplace>
    <votingplace vp_id="502" vp_e_no="19">
        <vp_address>Care Homes, Team 1, Taken in Kelston</vp_address>
        <vp_lat></vp_lat>
        <vp_lon></vp_lon>
    </votingplace>
    <votingplace vp_id="503" vp_e_no="64">
        <vp_address>Kamo Bowling Club, 15 Three Mile Bush Road, Kamo</vp_address>
        <vp_lat>-35.68275916</vp_lat>
        <vp_lon>174.2988373</vp_lon>
    </votingplace>
    <votingplace vp_id="504" vp_e_no="10">
        <vp_address>Heart of the Bays, 2 Glen Road, Browns Bay</vp_address>
        <vp_lat>-36.7149765</vp_lat>
        <vp_lon>174.7457199</vp_lon>
    </votingplace>
    <votingplace vp_id="505" vp_e_no="57">
        <vp_address>Waikuku Beach Hall, (corner Park Terrace &amp; Domain Road), Waikuku Beach</vp_address>
        <vp_lat>-43.286960580588726</vp_lat>
        <vp_lon>172.71636486053467</vp_lon>
    </votingplace>
    <votingplace vp_id="507" vp_e_no="13">
        <vp_address>Care Homes, Team 1, Taken in Hamilton West</vp_address>
        <vp_lat></vp_lat>
        <vp_lon></vp_lon>
    </votingplace>
    <votingplace vp_id="508" vp_e_no="64">
        <vp_address>Waipu Coronation Hall, 47 The Centre, Waipu</vp_address>
        <vp_lat>-35.98436999</vp_lat>
        <vp_lon>174.4447481</vp_lon>
    </votingplace>
    <votingplace vp_id="510" vp_e_no="57">
        <vp_address>Care Homes Team, Team 1, Taken in Waimakariri</vp_address>
        <vp_lat></vp_lat>
        <vp_lon></vp_lon>
    </votingplace>
    <votingplace vp_id="511" vp_e_no="28">
        <vp_address>Waiatarua Community Hall, 911 West Coast Road, Waiatarua</vp_address>
        <vp_lat>-36.93129642583034</vp_lat>
        <vp_lon>174.58036821359912</vp_lon>
    </votingplace>
    <votingplace vp_id="512" vp_e_no="11">
        <vp_address>Remuera Primary School, 25-33 Dromorne Road, Remuera</vp_address>
        <vp_lat>-36.88146868451189</vp_lat>
        <vp_lon>174.79290698655151</vp_lon>
    </votingplace>
    <votingplace vp_id="514" vp_e_no="2">
        <vp_address>Care Homes, Team 1, Taken in Banks Peninsula</vp_address>
        <vp_lat></vp_lat>
        <vp_lon></vp_lon>
    </votingplace>
    <votingplace vp_id="516" vp_e_no="39">
        <vp_address>Waiuku Netball Centre, Kitchener Road, Waiuku</vp_address>
        <vp_lat>-37.2462770092145</vp_lat>
        <vp_lon>174.73654487688944</vp_lon>
    </votingplace>
    <votingplace vp_id="517" vp_e_no="57">
        <vp_address>Oxford Jaycee&#39;s Hall, 56 Main Street, Oxford</vp_address>
        <vp_lat>-43.298055</vp_lat>
        <vp_lon>172.190013</vp_lon>
    </votingplace>
    <votingplace vp_id="520" vp_e_no="6">
        <vp_address>South New Brighton School, 160 Estuary Road, South New Brighton</vp_address>
        <vp_lat>-43.52622069</vp_lat>
        <vp_lon>172.7337743</vp_lon>
    </votingplace>
    <votingplace vp_id="522" vp_e_no="44">
        <vp_address>Prisons Team, Team 1, Taken in Rotorua</vp_address>
        <vp_lat></vp_lat>
        <vp_lon></vp_lon>
    </votingplace>
    <votingplace vp_id="523" vp_e_no="1">
        <vp_address>Ostend Memorial Hall, 29 Belgium Street, Ostend</vp_address>
        <vp_lat>-36.79672527</vp_lat>
        <vp_lon>175.0474190</vp_lon>
    </votingplace>
    <votingplace vp_id="527" vp_e_no="54">
        <vp_address>Care Homes Team, Team 2, Taken in Tukituki</vp_address>
        <vp_lat></vp_lat>
        <vp_lon></vp_lon>
    </votingplace>
    <votingplace vp_id="528" vp_e_no="54">
        <vp_address>Hawkes Bay Regional Prison, Team 1, Taken in Tukituki</vp_address>
        <vp_lat></vp_lat>
        <vp_lon></vp_lon>
    </votingplace>
    <votingplace vp_id="529" vp_e_no="57">
        <vp_address>Belfast Salvation Army, 794 Main North Road, Belfast</vp_address>
        <vp_lat>-43.4468201994386</vp_lat>
        <vp_lon>172.631869912147</vp_lon>
    </votingplace>
    <votingplace vp_id="530" vp_e_no="16">
        <vp_address>Prison Team, Team 1, Taken in Invercargill</vp_address>
        <vp_lat></vp_lat>
        <vp_lon></vp_lon>
    </votingplace>
    <votingplace vp_id="531" vp_e_no="65">
        <vp_address>Westfield Riccarton, Level 2, 129 Riccarton Road, Riccarton</vp_address>
        <vp_lat>-43.53098223021319</vp_lat>
        <vp_lon>172.59886770608446</vp_lon>
    </votingplace>
    <votingplace vp_id="532" vp_e_no="5">
        <vp_address>Phillipstown Community Hub, Room 5, 39A Nursery Road, Phillipstown</vp_address>
        <vp_lat>-43.53764779161803</vp_lat>
        <vp_lon>172.65561278240878</vp_lon>
    </votingplace>
    <votingplace vp_id="533" vp_e_no="26">
        <vp_address>Marewa Shopping Centre, Marewa Books, 118 Kennedy Road, Marewa</vp_address>
        <vp_lat>-39.500325933124174</vp_lat>
        <vp_lon>176.903021847671</vp_lon>
    </votingplace>
    <votingplace vp_id="534" vp_e_no="46">
        <vp_address>St John&#39;s Presbyterian Church, (corner Berkshire Street &amp; Durham Street), Arrowtown</vp_address>
        <vp_lat>-44.940378</vp_lat>
        <vp_lon>168.828406</vp_lon>
    </votingplace>
    <votingplace vp_id="537" vp_e_no="54">
        <vp_address>St John&#39;s Presbyterian Church, Jireh Hall, 608 Frederick Street, Mahora</vp_address>
        <vp_lat>-39.627817</vp_lat>
        <vp_lon>176.849573</vp_lon>
    </votingplace>
    <votingplace vp_id="538" vp_e_no="31">
        <vp_address>St Luke&#39;s Methodist Church, Ground Floor, 16 Greenslade Crescent, Northcote</vp_address>
        <vp_lat>-36.80131770465426</vp_lat>
        <vp_lon>174.74251472942657</vp_lon>
    </votingplace>
    <votingplace vp_id="539" vp_e_no="65">
        <vp_address>Hospital and Care Homes Team, Team A, Taken in Wigram</vp_address>
        <vp_lat></vp_lat>
        <vp_lon></vp_lon>
    </votingplace>
    <votingplace vp_id="540" vp_e_no="50">
        <vp_address>Prisons Team, Team 1, Taken in Taranaki-King Country</vp_address>
        <vp_lat></vp_lat>
        <vp_lon></vp_lon>
    </votingplace>
    <votingplace vp_id="541" vp_e_no="7">
        <vp_address>Whangamatā Memorial Hall, 328 Port Road, Whangamatā</vp_address>
        <vp_lat>-37.21091067</vp_lat>
        <vp_lon>175.8691226</vp_lon>
    </votingplace>
    <votingplace vp_id="542" vp_e_no="12">
        <vp_address>Chartwell Shopping Centre, Level 2, 201 Hukanui Road, Chartwell</vp_address>
        <vp_lat>-37.750347334056926</vp_lat>
        <vp_lon>175.27877415359472</vp_lon>
    </votingplace>
    <votingplace vp_id="546" vp_e_no="13">
        <vp_address>Prisons Team, Team 1, Taken in Hamilton West</vp_address>
        <vp_lat>-37.7918098</vp_lat>
        <vp_lon>175.2889373</vp_lon>
    </votingplace>
    <votingplace vp_id="547" vp_e_no="49">
        <vp_address>Auckland Netball Centre, 7 Allison Ferguson Drive, St Johns</vp_address>
        <vp_lat>-36.88366992694658</vp_lat>
        <vp_lon>174.84446890973555</vp_lon>
    </votingplace>
    <votingplace vp_id="548" vp_e_no="14">
        <vp_address>Belmont Hall, 711 Western Hutt Road, Belmont</vp_address>
        <vp_lat>-41.19132</vp_lat>
        <vp_lon>174.9282</vp_lon>
    </votingplace>
    <votingplace vp_id="550" vp_e_no="7">
        <vp_address>Katikati Primary School, 28 Beach Road, Katikati</vp_address>
        <vp_lat>-37.55175243</vp_lat>
        <vp_lon>175.922082</vp_lon>
    </votingplace>
    <votingplace vp_id="551" vp_e_no="32">
        <vp_address>Ōkaihau Primary School, 77 Settlers Way, Ōkaihau</vp_address>
        <vp_lat>-35.32357176</vp_lat>
        <vp_lon>173.7643535</vp_lon>
    </votingplace>
    <votingplace vp_id="552" vp_e_no="29">
        <vp_address>Ōpunake Library Plus, 43 Tasman Street, Ōpunake</vp_address>
        <vp_lat>-39.45495035</vp_lat>
        <vp_lon>173.8601487</vp_lon>
    </votingplace>
    <votingplace vp_id="553" vp_e_no="63">
        <vp_address>Orewa Community Centre, Main Hall, 40-46 Orewa Square, Orewa</vp_address>
        <vp_lat>-36.585764439048106</vp_lat>
        <vp_lon>174.69449455244842</vp_lon>
    </votingplace>
    <votingplace vp_id="555" vp_e_no="40">
        <vp_address>Hospital &amp; Care Homes - Ashburton, Team 1, Taken in Rangitata</vp_address>
        <vp_lat></vp_lat>
        <vp_lon></vp_lon>
    </votingplace>
    <votingplace vp_id="556" vp_e_no="40">
        <vp_address>Mt Hutt Memorial Hall, Function Room, 160 Main Street, Methven</vp_address>
        <vp_lat>-43.63177829368953</vp_lat>
        <vp_lon>171.64748853532734</vp_lon>
    </votingplace>
    <votingplace vp_id="557" vp_e_no="47">
        <vp_address>Otago Correctional Facility Milton, 62 Narrowdale Road, Milburn</vp_address>
        <vp_lat></vp_lat>
        <vp_lon></vp_lon>
    </votingplace>
    <votingplace vp_id="558" vp_e_no="3">
        <vp_address>Te Kura o Matapihi, 398 Matapihi Road, Matapihi</vp_address>
        <vp_lat>-37.69714727</vp_lat>
        <vp_lon>176.1944508</vp_lon>
    </votingplace>
    <votingplace vp_id="559" vp_e_no="2">
        <vp_address>Mt Pleasant Community Centre, 3 McCormacks Bay Road, Mount Pleasant</vp_address>
        <vp_lat>-43.55616826</vp_lat>
        <vp_lon>172.7206349</vp_lon>
    </votingplace>
    <votingplace vp_id="560" vp_e_no="9">
        <vp_address>Te Whare Wānanga o Awanuiārangi, 124 McAlister Street, Whakatāne</vp_address>
        <vp_lat>-37.9587825882785</vp_lat>
        <vp_lon>176.990475654602</vp_lon>
    </votingplace>
    <votingplace vp_id="561" vp_e_no="56">
        <vp_address>Gordonton School, 50 Woodlands Road, Gordonton</vp_address>
        <vp_lat>-37.666162418397775</vp_lat>
        <vp_lon>175.30841689794968</vp_lon>
    </votingplace>
    <votingplace vp_id="562" vp_e_no="2">
        <vp_address>Te Hāpua: Halswell Centre, Piharau Room, 341 Halswell Road, Halswell</vp_address>
        <vp_lat>-43.5816721</vp_lat>
        <vp_lon>172.5693387</vp_lon>
    </votingplace>
    <votingplace vp_id="563" vp_e_no="4">
        <vp_address>Eastview Baptist Church &amp; Community Centre, 559 Chapel Road, Botany</vp_address>
        <vp_lat>-36.9356293</vp_lat>
        <vp_lon>174.9149783</vp_lon>
    </votingplace>
    <votingplace vp_id="564" vp_e_no="59">
        <vp_address>Otematata Community Hall, 1 West Road, Otematata</vp_address>
        <vp_lat>-44.6040689365353</vp_lat>
        <vp_lon>170.19251791282448</vp_lon>
    </votingplace>
    <votingplace vp_id="565" vp_e_no="25">
        <vp_address>Lynfield Community Church, 35 The Avenue, Lynfield</vp_address>
        <vp_lat>-36.92774680753136</vp_lat>
        <vp_lon>174.72102306115184</vp_lon>
    </votingplace>
    <votingplace vp_id="566" vp_e_no="56">
        <vp_address>Waipa School, Kia Toa Street, Ngāruawāhia</vp_address>
        <vp_lat>-37.67603804974308</vp_lat>
        <vp_lon>175.1504636989683</vp_lon>
    </votingplace>
    <votingplace vp_id="568" vp_e_no="13">
        <vp_address>Wintec City Campus, Gallagher Hub, Lounge Area, (corner Anglesea Street &amp; Ward Street), Hamilton Central</vp_address>
        <vp_lat>-37.788457897972066</vp_lat>
        <vp_lon>175.27984600787343</vp_lon>
    </votingplace>
    <votingplace vp_id="569" vp_e_no="13">
        <vp_address>Wintec Rotokauri Campus, S Block Foyer, 51 Akoranga Road, Rotokauri</vp_address>
        <vp_lat>-37.760921239688166</vp_lat>
        <vp_lon>175.2303213490356</vp_lon>
    </votingplace>
    <votingplace vp_id="570" vp_e_no="32">
        <vp_address>Kawakawa Primary School Hall, 31-39 Albert Street, Kawakawa</vp_address>
        <vp_lat>-35.38318843</vp_lat>
        <vp_lon>174.0660901</vp_lon>
    </votingplace>
    <votingplace vp_id="571" vp_e_no="50">
        <vp_address>Rotokauri School, 462 Rotokauri Road, Rotokauri</vp_address>
        <vp_lat>-37.77018206735512</vp_lat>
        <vp_lon>175.2062168184547</vp_lon>
    </votingplace>
    <votingplace vp_id="572" vp_e_no="32">
        <vp_address>Peria School, 1430 Oruru Road, Peria</vp_address>
        <vp_lat>-35.09833296808937</vp_lat>
        <vp_lon>173.4874595503865</vp_lon>
    </votingplace>
    <votingplace vp_id="573" vp_e_no="9">
        <vp_address>Gisborne Boys High School, 80 Stanley Road, Gisborne</vp_address>
        <vp_lat>-38.6589208</vp_lat>
        <vp_lon>178.009915</vp_lon>
    </votingplace>
    <votingplace vp_id="574" vp_e_no="7">
        <vp_address>Omokoroa No. 1 School, Plummers Point Road (corner Emeny Road), Ōmokoroa</vp_address>
        <vp_lat>-37.673092</vp_lat>
        <vp_lon>176.032285</vp_lon>
    </votingplace>
    <votingplace vp_id="575" vp_e_no="29">
        <vp_address>New Plymouth Girls&#39; High School, Year 13 Study, O Block, 58 Mangorei Road, Strandon</vp_address>
        <vp_lat>-39.05534114332478</vp_lat>
        <vp_lon>174.09471089878124</vp_lon>
    </votingplace>
    <votingplace vp_id="576" vp_e_no="32">
        <vp_address>Totara North Hall, 4 School Road, Totara North</vp_address>
        <vp_lat>-35.04023764</vp_lat>
        <vp_lon>173.7146205</vp_lon>
    </votingplace>
    <votingplace vp_id="578" vp_e_no="16">
        <vp_address>Pop-up Voting Services, Various Locations - Southern Coast, Taken in Invercargill</vp_address>
        <vp_lat></vp_lat>
        <vp_lon></vp_lon>
    </votingplace>
    <votingplace vp_id="579" vp_e_no="30">
        <vp_address>Milford Shopping Centre, 24 Milford Road, Milford</vp_address>
        <vp_lat>-36.77167518057025</vp_lat>
        <vp_lon>174.7659255118942</vp_lon>
    </votingplace>
    <votingplace vp_id="580" vp_e_no="7">
        <vp_address>Te Kura o Te Moutere o Matakana, 183 Opureora Road, Matakana Island</vp_address>
        <vp_lat>-37.60907003844271</vp_lat>
        <vp_lon>176.08265457529427</vp_lon>
    </votingplace>
    <votingplace vp_id="581" vp_e_no="25">
        <vp_address>Blockhouse Bay Community Church, 76 Dundale Avenue, Blockhouse Bay</vp_address>
        <vp_lat>-36.91279278</vp_lat>
        <vp_lon>174.7151747</vp_lon>
    </votingplace>
    <votingplace vp_id="582" vp_e_no="14">
        <vp_address>Wainuiomata War Memorial Hall, 1 Queen Street, Wainuiomata</vp_address>
        <vp_lat>-41.261837555989445</vp_lat>
        <vp_lon>174.94559730327998</vp_lon>
    </votingplace>
    <votingplace vp_id="584" vp_e_no="16">
        <vp_address>Bluff School, 39 Bradshaw Street, Bluff</vp_address>
        <vp_lat>-46.60236156</vp_lat>
        <vp_lon>168.344306</vp_lon>
    </votingplace>
    <votingplace vp_id="585" vp_e_no="17">
        <vp_address>Cheviot Area School Community Room, Caverhill Road, Cheviot</vp_address>
        <vp_lat>-42.81177</vp_lat>
        <vp_lon>173.27623</vp_lon>
    </votingplace>
    <votingplace vp_id="586" vp_e_no="41">
        <vp_address>Taumarunui Primary School Hall, 2 Maata Street, Taumarunui</vp_address>
        <vp_lat>-38.88326810086138</vp_lat>
        <vp_lon>175.2711322584403</vp_lon>
    </votingplace>
    <votingplace vp_id="588" vp_e_no="7">
        <vp_address>Pahoia School, Community Hall, 29 Esdaile Road, Pahoia</vp_address>
        <vp_lat>-37.65522464</vp_lat>
        <vp_lon>175.9962686</vp_lon>
    </votingplace>
    <votingplace vp_id="589" vp_e_no="41">
        <vp_address>Waiouru Primary School, Ruapehu Road, Waiouru</vp_address>
        <vp_lat>-39.46858339229278</vp_lat>
        <vp_lon>175.67327201759747</vp_lon>
    </votingplace>
    <votingplace vp_id="591" vp_e_no="29">
        <vp_address>Waitara Library and Service Centre, 15A Queen Street, Waitara</vp_address>
        <vp_lat>-39.00224739648711</vp_lat>
        <vp_lon>174.2377649824278</vp_lon>
    </votingplace>
    <votingplace vp_id="592" vp_e_no="1">
        <vp_address>Onetangi Community Hall, 9 Third Avenue, Onetangi</vp_address>
        <vp_lat>-36.79045144</vp_lat>
        <vp_lon>175.0831651</vp_lon>
    </votingplace>
    <votingplace vp_id="594" vp_e_no="42">
        <vp_address>Walter Nash Centre, 26 Taine Street, Taitā</vp_address>
        <vp_lat>-41.179237211772495</vp_lat>
        <vp_lon>174.9585230097015</vp_lon>
    </votingplace>
    <votingplace vp_id="596" vp_e_no="41">
        <vp_address>Feilding Intermediate School, 95 East Street, Feilding</vp_address>
        <vp_lat>-40.22253324424262</vp_lat>
        <vp_lon>175.5784969026129</vp_lon>
    </votingplace>
    <votingplace vp_id="597" vp_e_no="11">
        <vp_address>Greyfriars Presbyterian Church, McKinney Hall, 544 Mount Eden Road, Mt Eden</vp_address>
        <vp_lat>-36.885784861756576</vp_lat>
        <vp_lon>174.76162054127164</vp_lon>
    </votingplace>
    <votingplace vp_id="598" vp_e_no="21">
        <vp_address>Māngere Arts &amp; Events Centre, (corner Orly Avenue &amp; Bader Drive), Māngere</vp_address>
        <vp_lat>-36.96916475172313</vp_lat>
        <vp_lon>174.79885625698623</vp_lon>
    </votingplace>
    <votingplace vp_id="599" vp_e_no="32">
        <vp_address>Opononi Area School, 263 State Highway 12, Ōmāpere</vp_address>
        <vp_lat>-35.52913232250478</vp_lat>
        <vp_lon>173.39044537852084</vp_lon>
    </votingplace>
    <votingplace vp_id="600" vp_e_no="41">
        <vp_address>Lytton Street School, (corner Lytton Street &amp; Monmouth Street), Feilding</vp_address>
        <vp_lat>-40.21824965154257</vp_lat>
        <vp_lon>175.57741372470522</vp_lon>
    </votingplace>
    <votingplace vp_id="601" vp_e_no="41">
        <vp_address>Manchester Street School, 160 Manchester Street, Feilding</vp_address>
        <vp_lat>-40.22215341969212</vp_lat>
        <vp_lon>175.56063361984963</vp_lon>
    </votingplace>
    <votingplace vp_id="602" vp_e_no="23">
        <vp_address>CCS Disability Action, Yarnton House, 14 Erson Avenue, Royal Oak</vp_address>
        <vp_lat>-36.91298067766059</vp_lat>
        <vp_lon>174.77266348900565</vp_lon>
    </votingplace>
    <votingplace vp_id="604" vp_e_no="45">
        <vp_address>Selwyn District Council, 2 Norman Kirk Drive, Rolleston</vp_address>
        <vp_lat>-43.59170227793854</vp_lat>
        <vp_lon>172.3837423210089</vp_lon>
    </votingplace>
    <votingplace vp_id="606" vp_e_no="41">
        <vp_address>North Street School, 52 North Street, Feilding</vp_address>
        <vp_lat>-40.213846877055325</vp_lat>
        <vp_lon>175.56761747261274</vp_lon>
    </votingplace>
    <votingplace vp_id="607" vp_e_no="49">
        <vp_address>St Heliers Church &amp; Community Centre, 100 St Heliers Bay Road, St Heliers</vp_address>
        <vp_lat>-36.854065</vp_lat>
        <vp_lon>174.860207</vp_lon>
    </votingplace>
    <votingplace vp_id="608" vp_e_no="35">
        <vp_address>Howick Library, Fencible Room, 25 Uxbridge Road, Howick</vp_address>
        <vp_lat>-36.89436152674933</vp_lat>
        <vp_lon>174.93330022706573</vp_lon>
    </votingplace>
    <votingplace vp_id="609" vp_e_no="13">
        <vp_address>Rhode Street School, 7 Rhode Street, Dinsdale</vp_address>
        <vp_lat>-37.7990579</vp_lat>
        <vp_lon>175.251790</vp_lon>
    </votingplace>
    <votingplace vp_id="610" vp_e_no="8">
        <vp_address>Port Chalmers Town Hall, 1 Grey Street, Port Chalmers</vp_address>
        <vp_lat>-45.81538769</vp_lat>
        <vp_lon>170.6226012</vp_lon>
    </votingplace>
    <votingplace vp_id="611" vp_e_no="17">
        <vp_address>Waipara School, Harakeke Room, 2 Loffhagen Drive, Waipara</vp_address>
        <vp_lat>-43.05426</vp_lat>
        <vp_lon>172.76141</vp_lon>
    </votingplace>
    <votingplace vp_id="612" vp_e_no="31">
        <vp_address>Maria Assumpta Parish Hall, 198 Beach Haven Road, Beach Haven</vp_address>
        <vp_lat>-36.7895646</vp_lat>
        <vp_lon>174.693340</vp_lon>
    </votingplace>
    <votingplace vp_id="613" vp_e_no="49">
        <vp_address>Remuera Baptist Church, 641 Remuera Road, Remuera</vp_address>
        <vp_lat>-36.880515</vp_lat>
        <vp_lon>174.81579</vp_lon>
    </votingplace>
    <votingplace vp_id="614" vp_e_no="45">
        <vp_address>Lincoln University Library, Ivey Hall, (corner Ellesmere Junction &amp; Springs Road), Lincoln</vp_address>
        <vp_lat>-43.64387862285818</vp_lat>
        <vp_lon>172.4680793394237</vp_lon>
    </votingplace>
    <votingplace vp_id="616" vp_e_no="18">
        <vp_address>St Patrick&#39;s Church, 380 Main Road, Huapai</vp_address>
        <vp_lat>-36.7711175355829</vp_lat>
        <vp_lon>174.5403452687819</vp_lon>
    </votingplace>
    <votingplace vp_id="617" vp_e_no="18">
        <vp_address>Matakana Community Hall, 43 Matakana Valley Road, Matakana</vp_address>
        <vp_lat>-36.350418</vp_lat>
        <vp_lon>174.7149877</vp_lon>
    </votingplace>
    <votingplace vp_id="618" vp_e_no="2">
        <vp_address>Ara Woolston Campus, Student Services Building, (corner Ensors Road &amp; Sullivan Avenue), Woolston</vp_address>
        <vp_lat>-43.54780093776244</vp_lat>
        <vp_lon>172.66190547097938</vp_lon>
    </votingplace>
    <votingplace vp_id="621" vp_e_no="43">
        <vp_address>Strathmore Park Community Centre, 108 Strathmore Avenue, Strathmore Park</vp_address>
        <vp_lat>-41.33048538313113</vp_lat>
        <vp_lon>174.82192255067687</vp_lon>
    </votingplace>
    <votingplace vp_id="622" vp_e_no="61">
        <vp_address>Care Homes Team - West Coast, Team 2, Taken in West Coast-Tasman</vp_address>
        <vp_lat></vp_lat>
        <vp_lon></vp_lon>
    </votingplace>
    <votingplace vp_id="623" vp_e_no="44">
        <vp_address>Kawaha Point Primary School, 72-100 Aquarius Drive, Kawaha Point</vp_address>
        <vp_lat>-38.10930378471687</vp_lat>
        <vp_lon>176.2332806535476</vp_lon>
    </votingplace>
    <votingplace vp_id="624" vp_e_no="32">
        <vp_address>Pukepoto School, 818 Kaitaia-Awaroa Road, Pukepoto</vp_address>
        <vp_lat>-35.15965687921675</vp_lat>
        <vp_lon>173.21384723753903</vp_lon>
    </votingplace>
    <votingplace vp_id="625" vp_e_no="32">
        <vp_address>Tautoro School, Mangakahia Road, Tautoro</vp_address>
        <vp_lat>-35.472824299385344</vp_lat>
        <vp_lon>173.84007924636006</vp_lon>
    </votingplace>
    <votingplace vp_id="627" vp_e_no="16">
        <vp_address>Edendale School, 24 Salford Street, Edendale</vp_address>
        <vp_lat>-46.3114977</vp_lat>
        <vp_lon>168.7818759</vp_lon>
    </votingplace>
    <votingplace vp_id="628" vp_e_no="29">
        <vp_address>Fitzroy Primary School Hall, 45 Sackville Street, Fitzroy</vp_address>
        <vp_lat>-39.0481437758806</vp_lat>
        <vp_lon>174.10218518781218</vp_lon>
    </votingplace>
    <votingplace vp_id="629" vp_e_no="32">
        <vp_address>Kaitaia Intermediate School, 45 North Road, Kaitaia</vp_address>
        <vp_lat>-35.10389921318658</vp_lat>
        <vp_lon>173.25860375163526</vp_lon>
    </votingplace>
    <votingplace vp_id="630" vp_e_no="56">
        <vp_address>Huntly West Primary School, Paki Street, Huntly</vp_address>
        <vp_lat>-37.55891868</vp_lat>
        <vp_lon>175.1501578</vp_lon>
    </votingplace>
    <votingplace vp_id="632" vp_e_no="32">
        <vp_address>Ōhaeawai School, 22 Tennyson Street, Ōhaeawai</vp_address>
        <vp_lat>-35.35294389086444</vp_lat>
        <vp_lon>173.88395974425447</vp_lon>
    </votingplace>
    <votingplace vp_id="633" vp_e_no="16">
        <vp_address>Wyndham Primary School, 40 Florence Street, Wyndham</vp_address>
        <vp_lat>-46.3251281</vp_lat>
        <vp_lon>168.8421901</vp_lon>
    </votingplace>
    <votingplace vp_id="634" vp_e_no="50">
        <vp_address>Te Uku School Hall, 3436 State Highway 23, Te Uku</vp_address>
        <vp_lat>-37.82802139</vp_lat>
        <vp_lon>174.9571546</vp_lon>
    </votingplace>
    <votingplace vp_id="635" vp_e_no="50">
        <vp_address>Raglan Town Hall, 41 Bow Street, Raglan</vp_address>
        <vp_lat>-37.8003198</vp_lat>
        <vp_lon>174.8700298</vp_lon>
    </votingplace>
    <votingplace vp_id="636" vp_e_no="41">
        <vp_address>Taoroa School, 43 Pukeokahu Road, Taoroa</vp_address>
        <vp_lat>-39.69186525884305</vp_lat>
        <vp_lon>175.94257738731062</vp_lon>
    </votingplace>
    <votingplace vp_id="637" vp_e_no="59">
        <vp_address>Mackenzie Community Centre Stadium, 53 Main Street, access from Gall Street, Fairlie</vp_address>
        <vp_lat>-44.10008</vp_lat>
        <vp_lon>170.82802</vp_lon>
    </votingplace>
    <votingplace vp_id="640" vp_e_no="64">
        <vp_address>Care Homes Team, Team 1, Taken in Whangārei</vp_address>
        <vp_lat></vp_lat>
        <vp_lon></vp_lon>
    </votingplace>
    <votingplace vp_id="641" vp_e_no="49">
        <vp_address>Ōrākei Community Centre, 156 Kepa Road, Ōrākei</vp_address>
        <vp_lat>-36.861390312004694</vp_lat>
        <vp_lon>174.82344925403595</vp_lon>
    </votingplace>
    <votingplace vp_id="643" vp_e_no="47">
        <vp_address>Kaka Point Community Hall, 3 Moana Street, Kaka Point</vp_address>
        <vp_lat>-46.38676185</vp_lat>
        <vp_lon>169.7819144</vp_lon>
    </votingplace>
    <votingplace vp_id="644" vp_e_no="18">
        <vp_address>Defence Force Base, RNZAF Base Airport Drive, Taken in Kaipara ki Mahurangi</vp_address>
        <vp_lat></vp_lat>
        <vp_lon></vp_lon>
    </votingplace>
    <votingplace vp_id="645" vp_e_no="26">
        <vp_address>Tuai Public Hall, (corner Main Road &amp; Waikare-Taheke Street), Tuai</vp_address>
        <vp_lat>-38.81324611079282</vp_lat>
        <vp_lon>177.14644850647124</vp_lon>
    </votingplace>
    <votingplace vp_id="646" vp_e_no="28">
        <vp_address>Barnett Hall, 2 North Piha Road, Piha</vp_address>
        <vp_lat>-36.94256978549108</vp_lat>
        <vp_lon>174.4647684936685</vp_lon>
    </votingplace>
    <votingplace vp_id="647" vp_e_no="17">
        <vp_address>Loburn School Te Kura Aromauka, Mt Thomas Room, 73 Hodgsons Road, Loburn</vp_address>
        <vp_lat>-43.25011690240574</vp_lat>
        <vp_lon>172.5295810557069</vp_lon>
    </votingplace>
    <votingplace vp_id="648" vp_e_no="17">
        <vp_address>Broomfield School, 115 Mount Brown Road, Broomfield</vp_address>
        <vp_lat>-43.11752</vp_lat>
        <vp_lon>172.68537</vp_lon>
    </votingplace>
    <votingplace vp_id="649" vp_e_no="61">
        <vp_address>Appleby School, 19 Moutere Highway, Appleby</vp_address>
        <vp_lat>-41.30751811945024</vp_lat>
        <vp_lon>173.1200661353898</vp_lon>
    </votingplace>
    <votingplace vp_id="650" vp_e_no="47">
        <vp_address>Outram War Memorial Hall, 41 Holyhead Street, Outram</vp_address>
        <vp_lat>-45.856750</vp_lat>
        <vp_lon>170.230622</vp_lon>
    </votingplace>
    <votingplace vp_id="651" vp_e_no="47">
        <vp_address>Caversham Presbyterian Church, St Andrews Room, 61 Thorn Street, Caversham</vp_address>
        <vp_lat>-45.8986404</vp_lat>
        <vp_lon>170.4809395</vp_lon>
    </votingplace>
    <votingplace vp_id="652" vp_e_no="7">
        <vp_address>Care Homes, Team 2, Taken in Coromandel</vp_address>
        <vp_lat></vp_lat>
        <vp_lon></vp_lon>
    </votingplace>
    <votingplace vp_id="653" vp_e_no="26">
        <vp_address>Te Mahia School, 457 Mahia East Coast Road, Māhia</vp_address>
        <vp_lat>-39.08709795511521</vp_lat>
        <vp_lon>177.91957788219563</vp_lon>
    </votingplace>
    <votingplace vp_id="654" vp_e_no="26">
        <vp_address>Wairoa War Memorial Hall, 93 Queen Street, Wairoa</vp_address>
        <vp_lat>-39.03437354710023</vp_lat>
        <vp_lon>177.4225664698429</vp_lon>
    </votingplace>
    <votingplace vp_id="655" vp_e_no="58">
        <vp_address>Pahiatua Town Hall, Supper Room, 5 Kiwi Street, Pahiatua</vp_address>
        <vp_lat>-40.454648</vp_lat>
        <vp_lon>175.840377</vp_lon>
    </votingplace>
    <votingplace vp_id="656" vp_e_no="56">
        <vp_address>Care Homes Team, Team 1, Taken in Waikato</vp_address>
        <vp_lat></vp_lat>
        <vp_lon></vp_lon>
    </votingplace>
    <votingplace vp_id="657" vp_e_no="32">
        <vp_address>Ngataki School, 5265 Far North Road, Ngataki</vp_address>
        <vp_lat>-34.744618103669836</vp_lat>
        <vp_lon>173.04643703137978</vp_lon>
    </votingplace>
    <votingplace vp_id="658" vp_e_no="28">
        <vp_address>Huia Community Hall, 1253 Huia Road, Huia</vp_address>
        <vp_lat>-37.005120009802745</vp_lat>
        <vp_lon>174.5623098360251</vp_lon>
    </votingplace>
    <votingplace vp_id="661" vp_e_no="13">
        <vp_address>Te Wānanga o Aotearoa, Mangakōtukutuku Campus, 254 Ohaupo Road, Glenview</vp_address>
        <vp_lat>-37.82391754382265</vp_lat>
        <vp_lon>175.2906695287015</vp_lon>
    </votingplace>
    <votingplace vp_id="662" vp_e_no="13">
        <vp_address>Western Community Centre, 46 Hyde Avenue, Nawton</vp_address>
        <vp_lat>-37.7824171</vp_lat>
        <vp_lon>175.2384815</vp_lon>
    </votingplace>
    <votingplace vp_id="663" vp_e_no="50">
        <vp_address>Aria School, (corner Kiekie Street &amp; Rimu Street), Aria</vp_address>
        <vp_lat>-38.563227</vp_lat>
        <vp_lon>174.985977</vp_lon>
    </votingplace>
    <votingplace vp_id="664" vp_e_no="32">
        <vp_address>Te Kura o Te Kao, 6603 Far North Road, Te Kao</vp_address>
        <vp_lat>-34.65543701290917</vp_lat>
        <vp_lon>172.96583666749584</vp_lon>
    </votingplace>
    <votingplace vp_id="665" vp_e_no="32">
        <vp_address>Paparore School, 157 West Coast Road, Waipapakauri</vp_address>
        <vp_lat>-35.02771466051104</vp_lat>
        <vp_lon>173.20254883702432</vp_lon>
    </votingplace>
    <votingplace vp_id="666" vp_e_no="51">
        <vp_address>Taupō Youth Arts Centre, 98 Richmond Avenue, Taupō</vp_address>
        <vp_lat>-38.71928938974389</vp_lat>
        <vp_lon>176.08735941469592</vp_lon>
    </votingplace>
    <votingplace vp_id="667" vp_e_no="13">
        <vp_address>Te Wānanga o Aotearoa, Raroera Campus, 510-514 Te Rapa Road, Te Rapa</vp_address>
        <vp_lat>-37.760074826460865</vp_lat>
        <vp_lon>175.25226978331685</vp_lon>
    </votingplace>
    <votingplace vp_id="668" vp_e_no="32">
        <vp_address>Te Hāpua School, Te Hāpua Road, Te Hāpua</vp_address>
        <vp_lat>-34.51713427923011</vp_lat>
        <vp_lon>172.90915192852518</vp_lon>
    </votingplace>
    <votingplace vp_id="669" vp_e_no="13">
        <vp_address>Frankton School Hall, 206 Massey Street, Frankton</vp_address>
        <vp_lat>-37.79325164</vp_lat>
        <vp_lon>175.2496374</vp_lon>
    </votingplace>
    <votingplace vp_id="670" vp_e_no="50">
        <vp_address>Ōtorohanga College, Bledisloe Avenue, Ōtorohanga</vp_address>
        <vp_lat>-38.17986876</vp_lat>
        <vp_lon>175.2060366</vp_lon>
    </votingplace>
    <votingplace vp_id="671" vp_e_no="19">
        <vp_address>Waterview Methodist Church Hall, 1547 Great North Road, Fir Street entrance, Waterview</vp_address>
        <vp_lat>-36.88206319554319</vp_lat>
        <vp_lon>174.7008520573529</vp_lon>
    </votingplace>
    <votingplace vp_id="672" vp_e_no="50">
        <vp_address>Kio Kio School, 1701 State Highway 3, Ōtorohanga</vp_address>
        <vp_lat>-38.16193078</vp_lat>
        <vp_lon>175.2764177</vp_lon>
    </votingplace>
    <votingplace vp_id="673" vp_e_no="50">
        <vp_address>Pop-up Voting Services, Various Locations - Ongarue Region, Taken in Taranaki-King Country</vp_address>
        <vp_lat></vp_lat>
        <vp_lon></vp_lon>
    </votingplace>
    <votingplace vp_id="674" vp_e_no="32">
        <vp_address>Paparoa School, 14 Franklin Road, Paparoa</vp_address>
        <vp_lat>-36.099652966200665</vp_lat>
        <vp_lon>174.23335538184392</vp_lon>
    </votingplace>
    <votingplace vp_id="675" vp_e_no="8">
        <vp_address>Edgar Centre, 116 Portsmouth Drive, Andersons Bay</vp_address>
        <vp_lat>-45.8922216</vp_lat>
        <vp_lon>170.5117236</vp_lon>
    </votingplace>
    <votingplace vp_id="676" vp_e_no="50">
        <vp_address>Mapiu Hall, 2763 State Highway 4, Mapiu</vp_address>
        <vp_lat>-38.577579205127435</vp_lat>
        <vp_lon>175.2150231885611</vp_lon>
    </votingplace>
    <votingplace vp_id="677" vp_e_no="47">
        <vp_address>Wingatui Hall, 270 Gladstone Road North, Wingatui</vp_address>
        <vp_lat>-45.87683723</vp_lat>
        <vp_lon>170.3872313</vp_lon>
    </votingplace>
    <votingplace vp_id="678" vp_e_no="47">
        <vp_address>Wee Nippers Early Childhood Centre, 1 Ayrshire Drive, Mosgiel</vp_address>
        <vp_lat>-45.868833</vp_lat>
        <vp_lon>170.366577</vp_lon>
    </votingplace>
    <votingplace vp_id="679" vp_e_no="17">
        <vp_address>Balcairn Hall, 4 Ashbys Road, Balcairn</vp_address>
        <vp_lat>-43.20985772</vp_lat>
        <vp_lon>172.6967649</vp_lon>
    </votingplace>
    <votingplace vp_id="680" vp_e_no="47">
        <vp_address>Fairfield Community Hall, 10 Fairplay Street, Fairfield</vp_address>
        <vp_lat>-45.89813293</vp_lat>
        <vp_lon>170.3926082</vp_lon>
    </votingplace>
    <votingplace vp_id="681" vp_e_no="50">
        <vp_address>Ngahinapouri Hall, 1185 Kakaramea Road, Ngāhinapōuri</vp_address>
        <vp_lat>-37.89793702</vp_lat>
        <vp_lon>175.205324</vp_lon>
    </votingplace>
    <votingplace vp_id="682" vp_e_no="8">
        <vp_address>Portobello School, 30 Harrington Point Road, Portobello</vp_address>
        <vp_lat>-45.83822501</vp_lat>
        <vp_lon>170.6571996</vp_lon>
    </votingplace>
    <votingplace vp_id="683" vp_e_no="47">
        <vp_address>Mosgiel Abilities Resource Centre, 16 Green Street, Mosgiel</vp_address>
        <vp_lat>-45.87616626</vp_lat>
        <vp_lon>170.3534095</vp_lon>
    </votingplace>
    <votingplace vp_id="684" vp_e_no="15">
        <vp_address>Ōrauwhata: Bishopdale Library and Community Centre, 13 Bishopdale Court, Bishopdale</vp_address>
        <vp_lat>-43.4899544</vp_lat>
        <vp_lon>172.5861747</vp_lon>
    </votingplace>
    <votingplace vp_id="685" vp_e_no="51">
        <vp_address>Waipahihi School, 20 Parata Street, Taupō</vp_address>
        <vp_lat>-38.71740383</vp_lat>
        <vp_lon>176.0874618</vp_lon>
    </votingplace>
    <votingplace vp_id="686" vp_e_no="51">
        <vp_address>Omori Community Hall, 220 Omori Road, Omori</vp_address>
        <vp_lat>-38.89710673122361</vp_lat>
        <vp_lon>175.76180636647078</vp_lon>
    </votingplace>
    <votingplace vp_id="688" vp_e_no="16">
        <vp_address>Fairfax Public Hall, 1493 Riverton-Otautau Road, Fairfax</vp_address>
        <vp_lat>-46.21126203</vp_lat>
        <vp_lon>168.0511744</vp_lon>
    </votingplace>
    <votingplace vp_id="689" vp_e_no="16">
        <vp_address>Takitimu Primary School Hall, 17 Evans Street, Nightcaps</vp_address>
        <vp_lat>-45.97480051</vp_lat>
        <vp_lon>168.0325777</vp_lon>
    </votingplace>
    <votingplace vp_id="692" vp_e_no="26">
        <vp_address>Westshore School Hall, Alfred Street, Westshore</vp_address>
        <vp_lat>-39.47737078758568</vp_lat>
        <vp_lon>176.8828906176743</vp_lon>
    </votingplace>
    <votingplace vp_id="693" vp_e_no="45">
        <vp_address>Leeston Consolidated School, 19 Selwyn Street, Leeston</vp_address>
        <vp_lat>-43.76096593181094</vp_lat>
        <vp_lon>172.29763455806852</vp_lon>
    </votingplace>
    <votingplace vp_id="694" vp_e_no="45">
        <vp_address>Springston Primary School Library, 16-20 Leeston Road, Springston</vp_address>
        <vp_lat>-43.644683311863716</vp_lat>
        <vp_lon>172.42569964633637</vp_lon>
    </votingplace>
    <votingplace vp_id="696" vp_e_no="16">
        <vp_address>Ohai Hall, 10 Richmond Street, Ohai</vp_address>
        <vp_lat>-45.93202489738892</vp_lat>
        <vp_lon>167.95819591987964</vp_lon>
    </votingplace>
    <votingplace vp_id="697" vp_e_no="46">
        <vp_address>Calvin Community Church, 25 Robertson Street, Gore</vp_address>
        <vp_lat>-46.10586</vp_lat>
        <vp_lon>168.92803</vp_lon>
    </votingplace>
    <votingplace vp_id="698" vp_e_no="45">
        <vp_address>Springston South Soldiers Memorial Hall, 433 Days Road, Springston South</vp_address>
        <vp_lat>-43.68312250796498</vp_lat>
        <vp_lon>172.43695035938813</vp_lon>
    </votingplace>
    <votingplace vp_id="699" vp_e_no="46">
        <vp_address>East Gore School Hall, 3 Wentworth Street, Gore</vp_address>
        <vp_lat>-46.091354</vp_lat>
        <vp_lon>168.96106</vp_lon>
    </votingplace>
    <votingplace vp_id="700" vp_e_no="45">
        <vp_address>Weedons School, 135 Weedons Ross Road, Weedons</vp_address>
        <vp_lat>-43.57052271813896</vp_lat>
        <vp_lon>172.40343103165213</vp_lon>
    </votingplace>
    <votingplace vp_id="701" vp_e_no="46">
        <vp_address>Gore Main School Hall, 39 Ardwick Street, Gore</vp_address>
        <vp_lat>-46.095930</vp_lat>
        <vp_lon>168.940308</vp_lon>
    </votingplace>
    <votingplace vp_id="702" vp_e_no="51">
        <vp_address>Summerset By The Lake, 2 Wharewaka Road, Taupō</vp_address>
        <vp_lat>-38.72993358190742</vp_lat>
        <vp_lon>176.0713767527003</vp_lon>
    </votingplace>
    <votingplace vp_id="703" vp_e_no="32">
        <vp_address>Oromahoe School, 50 Oromahoe School Road, Oromahoe</vp_address>
        <vp_lat>-35.318609574714074</vp_lat>
        <vp_lon>173.97215540696874</vp_lon>
    </votingplace>
    <votingplace vp_id="704" vp_e_no="24">
        <vp_address>UNITEC, Te Puna, Building 180, 139 Carrington Road, Mt Albert</vp_address>
        <vp_lat>-36.8807404</vp_lat>
        <vp_lon>174.7078011</vp_lon>
    </votingplace>
    <votingplace vp_id="707" vp_e_no="50">
        <vp_address>Piopio Primary School, 14 Aria Road, Piopio</vp_address>
        <vp_lat>-38.4710828104699</vp_lat>
        <vp_lon>175.01468701709558</vp_lon>
    </votingplace>
    <votingplace vp_id="708" vp_e_no="26">
        <vp_address>King George Hall, 1 Hill Road, Bayview</vp_address>
        <vp_lat>-39.41884547243147</vp_lat>
        <vp_lon>176.86723259066773</vp_lon>
    </votingplace>
    <votingplace vp_id="709" vp_e_no="61">
        <vp_address>Brightwater School, 106 Ellis Street, Brightwater</vp_address>
        <vp_lat>-41.37914017</vp_lat>
        <vp_lon>173.112957</vp_lon>
    </votingplace>
    <votingplace vp_id="710" vp_e_no="55">
        <vp_address>Hobsonville School, 104 Hobsonville Road, Hobsonville</vp_address>
        <vp_lat>-36.805505064196</vp_lat>
        <vp_lon>174.637062549591</vp_lon>
    </votingplace>
    <votingplace vp_id="711" vp_e_no="8">
        <vp_address>Blueskin Bay Library, 28 Harvey Street, Waitati</vp_address>
        <vp_lat>-45.74904907426</vp_lat>
        <vp_lon>170.570619106292</vp_lon>
    </votingplace>
    <votingplace vp_id="713" vp_e_no="27">
        <vp_address>Richmond School Community Hall, 14 Cambridge Street, Richmond</vp_address>
        <vp_lat>-41.33915828002969</vp_lat>
        <vp_lon>173.1819348488766</vp_lon>
    </votingplace>
    <votingplace vp_id="714" vp_e_no="27">
        <vp_address>Enner Glynn School, 10 The Ridgeway, Enner Glynn</vp_address>
        <vp_lat>-41.30557012</vp_lat>
        <vp_lon>173.2539758</vp_lon>
    </votingplace>
    <votingplace vp_id="715" vp_e_no="28">
        <vp_address>Oratia District School Hall, 1 Shaw Road, Oratia</vp_address>
        <vp_lat>-36.91343173285683</vp_lat>
        <vp_lon>174.62065102423853</vp_lon>
    </votingplace>
    <votingplace vp_id="716" vp_e_no="37">
        <vp_address>Salvation Army Community Centre, 18 Allright Place, Mt Wellington</vp_address>
        <vp_lat>-36.9111846</vp_lat>
        <vp_lon>174.8482583</vp_lon>
    </votingplace>
    <votingplace vp_id="717" vp_e_no="52">
        <vp_address>Mount Maunganui Senior Citizens&#39; Hall, 345 Maunganui Road, Mount Maunganui</vp_address>
        <vp_lat>-37.64327022</vp_lat>
        <vp_lon>176.1875474</vp_lon>
    </votingplace>
    <votingplace vp_id="718" vp_e_no="59">
        <vp_address>Tarras Primary School, 2812 Tarras-Cromwell Road, Tarras</vp_address>
        <vp_lat>-44.83751</vp_lat>
        <vp_lon>169.41229</vp_lon>
    </votingplace>
    <votingplace vp_id="720" vp_e_no="12">
        <vp_address>Fairfield College, 25 Bankwood Road, Chartwell</vp_address>
        <vp_lat>-37.76257</vp_lat>
        <vp_lon>175.2763</vp_lon>
    </votingplace>
    <votingplace vp_id="721" vp_e_no="52">
        <vp_address>Mount Maunganui College, 565 Maunganui Road, Mount Maunganui</vp_address>
        <vp_lat>-37.66277563</vp_lat>
        <vp_lon>176.2071041</vp_lon>
    </votingplace>
    <votingplace vp_id="722" vp_e_no="32">
        <vp_address>Broadwood Area School, 1041 Broadwood Road, Broadwood</vp_address>
        <vp_lat>-35.26124483</vp_lat>
        <vp_lon>173.3949911</vp_lon>
    </votingplace>
    <votingplace vp_id="723" vp_e_no="32">
        <vp_address>Te Kura ā-Iwi O Pawarenga, 42 Te Riha Road, Pawarenga</vp_address>
        <vp_lat>-35.3370261569037</vp_lat>
        <vp_lon>173.289692401885</vp_lon>
    </votingplace>
    <votingplace vp_id="725" vp_e_no="52">
        <vp_address>Aquinas College, 183 Pyes Pa Road, Pyes Pa</vp_address>
        <vp_lat>-37.751906304206905</vp_lat>
        <vp_lon>176.1224132353676</vp_lon>
    </votingplace>
    <votingplace vp_id="727" vp_e_no="32">
        <vp_address>Te Kura Taumata O Panguru, 2178 West Coast Road, Panguru</vp_address>
        <vp_lat>-35.380454529578834</vp_lat>
        <vp_lon>173.3832459479882</vp_lon>
    </votingplace>
    <votingplace vp_id="728" vp_e_no="46">
        <vp_address>Waimumu Te Tipua Hall, (corner Waimumu Road &amp; Glendhu Road), Waimumu</vp_address>
        <vp_lat>-46.1270</vp_lat>
        <vp_lon>168.8164</vp_lon>
    </votingplace>
    <votingplace vp_id="729" vp_e_no="32">
        <vp_address>Umawera School, State Highway 1, Umawera</vp_address>
        <vp_lat>-35.28506653</vp_lat>
        <vp_lon>173.5743728</vp_lon>
    </votingplace>
    <votingplace vp_id="730" vp_e_no="32">
        <vp_address>Waimā School, Waimā School Road (State Highway 12), Waimā</vp_address>
        <vp_lat>-35.48972325713945</vp_lat>
        <vp_lon>173.58629056454433</vp_lon>
    </votingplace>
    <votingplace vp_id="731" vp_e_no="32">
        <vp_address>Karikari Community Hall, 16 Maitai Bay Road, Whatuwhiwhi</vp_address>
        <vp_lat>-34.868938</vp_lat>
        <vp_lon>173.380931</vp_lon>
    </votingplace>
    <votingplace vp_id="732" vp_e_no="46">
        <vp_address>Mataura School Hall, 33 Oakland Street, Mataura</vp_address>
        <vp_lat>-46.1929</vp_lat>
        <vp_lon>168.86285</vp_lon>
    </votingplace>
    <votingplace vp_id="733" vp_e_no="52">
        <vp_address>Tauranga Primary School Hall, 31 Fifth Avenue, Tauranga</vp_address>
        <vp_lat>-37.692541234791044</vp_lat>
        <vp_lon>176.1646842872511</vp_lon>
    </votingplace>
    <votingplace vp_id="735" vp_e_no="3">
        <vp_address>Papamoa Community Centre, 15 Gravatt Road, Papamoa Beach</vp_address>
        <vp_lat>-37.70044484991605</vp_lat>
        <vp_lon>176.28194346512643</vp_lon>
    </votingplace>
    <votingplace vp_id="736" vp_e_no="56">
        <vp_address>Huntly Primary School, 25 Onslow Street, Huntly</vp_address>
        <vp_lat>-37.555668</vp_lat>
        <vp_lon>175.162270</vp_lon>
    </votingplace>
    <votingplace vp_id="738" vp_e_no="12">
        <vp_address>Endeavour School, 86 Endeavour Avenue, Flagstaff</vp_address>
        <vp_lat>-37.732108</vp_lat>
        <vp_lon>175.254044</vp_lon>
    </votingplace>
    <votingplace vp_id="739" vp_e_no="12">
        <vp_address>Insoll Avenue School, 95 Insoll Avenue, Enderley</vp_address>
        <vp_lat>-37.76165773024665</vp_lat>
        <vp_lon>175.29678966743262</vp_lon>
    </votingplace>
    <votingplace vp_id="741" vp_e_no="50">
        <vp_address>Whatawhata School, 9 Kura Street, Whatawhata</vp_address>
        <vp_lat>-37.79248624284479</vp_lat>
        <vp_lon>175.15736031031466</vp_lon>
    </votingplace>
    <votingplace vp_id="742" vp_e_no="50">
        <vp_address>Ohaupō Community Sport &amp; Recreation Centre, 17 Forkert Road, Ōhaupō</vp_address>
        <vp_lat>-37.9160776186799</vp_lat>
        <vp_lon>175.304169933626</vp_lon>
    </votingplace>
    <votingplace vp_id="743" vp_e_no="12">
        <vp_address>Te Wharekura o Kirikiriroa, 33 Fifth Avenue, Enderley</vp_address>
        <vp_lat>-37.77073688245077</vp_lat>
        <vp_lon>175.29527475383514</vp_lon>
    </votingplace>
    <votingplace vp_id="744" vp_e_no="12">
        <vp_address>Fairfield Baptist Church Hall, 1101 Heaphy Terrace, Fairfield</vp_address>
        <vp_lat>-37.7677251</vp_lat>
        <vp_lon>175.280438</vp_lon>
    </votingplace>
    <votingplace vp_id="745" vp_e_no="58">
        <vp_address>Greytown Town Centre, The Forum, 89-91 Main Street, Greytown</vp_address>
        <vp_lat>-41.08016129565499</vp_lat>
        <vp_lon>175.46104163582697</vp_lon>
    </votingplace>
    <votingplace vp_id="747" vp_e_no="12">
        <vp_address>Woodstock Primary School Hall, 43 Fairfield Avenue, Fairfield</vp_address>
        <vp_lat>-37.7691848522312</vp_lat>
        <vp_lon>175.27426280755284</vp_lon>
    </votingplace>
    <votingplace vp_id="749" vp_e_no="62">
        <vp_address>Tawhiti School, 16 Galt Street, Hāwera</vp_address>
        <vp_lat>-39.580758809450984</vp_lat>
        <vp_lon>174.28922185068436</vp_lon>
    </votingplace>
    <votingplace vp_id="751" vp_e_no="62">
        <vp_address>Ramanui School, 85 Fairfield Road, Hāwera</vp_address>
        <vp_lat>-39.59982661400902</vp_lat>
        <vp_lon>174.28015273953991</vp_lon>
    </votingplace>
    <votingplace vp_id="752" vp_e_no="64">
        <vp_address>Kaurihohore Hall, 24 Apotu Road, Kauri</vp_address>
        <vp_lat>-35.646784</vp_lat>
        <vp_lon>174.293834</vp_lon>
    </votingplace>
    <votingplace vp_id="754" vp_e_no="45">
        <vp_address>Clearview Primary Hall, 20 Broadlands Drive, Rolleston</vp_address>
        <vp_lat>-43.6066126031577</vp_lat>
        <vp_lon>172.38184604891632</vp_lon>
    </votingplace>
    <votingplace vp_id="755" vp_e_no="45">
        <vp_address>Templeton Primary School Auditorium, 40 Kirk Road, Templeton</vp_address>
        <vp_lat>-43.55095800899255</vp_lat>
        <vp_lon>172.47241839842474</vp_lon>
    </votingplace>
    <votingplace vp_id="757" vp_e_no="9">
        <vp_address>Kaiti School, 517 Wainui Road, Gisborne</vp_address>
        <vp_lat>-38.67580302</vp_lat>
        <vp_lon>178.0451972</vp_lon>
    </votingplace>
    <votingplace vp_id="758" vp_e_no="9">
        <vp_address>Te Hapara School, 31 Mill Road, Gisborne</vp_address>
        <vp_lat>-38.65139858</vp_lat>
        <vp_lon>178.001290</vp_lon>
    </votingplace>
    <votingplace vp_id="759" vp_e_no="15">
        <vp_address>Te Kura o Waiutuutu Ilam School Hall, 66 Ilam Road, Ilam</vp_address>
        <vp_lat>-43.52602577817973</vp_lat>
        <vp_lon>172.58032891777324</vp_lon>
    </votingplace>
    <votingplace vp_id="761" vp_e_no="9">
        <vp_address>Wainui Beach School, 56 Wairere Road, Gisborne</vp_address>
        <vp_lat>-38.68368723</vp_lat>
        <vp_lon>178.0751221</vp_lon>
    </votingplace>
    <votingplace vp_id="762" vp_e_no="9">
        <vp_address>Gisborne Hospital, Poutama Room, 421 Ormond Road, Gisborne</vp_address>
        <vp_lat>-38.6378654</vp_lat>
        <vp_lon>178.005918</vp_lon>
    </votingplace>
    <votingplace vp_id="763" vp_e_no="9">
        <vp_address>Ilminster Intermediate, 70 De Lautour Road, Gisborne</vp_address>
        <vp_lat>-38.669668700721346</vp_lat>
        <vp_lon>178.04518103660544</vp_lon>
    </votingplace>
    <votingplace vp_id="764" vp_e_no="44">
        <vp_address>Otonga Road Primary School Hall, 105 Otonga Road, Springfield</vp_address>
        <vp_lat>-38.16190940608288</vp_lat>
        <vp_lon>176.2342095564073</vp_lon>
    </votingplace>
    <votingplace vp_id="765" vp_e_no="32">
        <vp_address>Herekino School, 2525 Kaitaia-Awaroa Road, Herekino</vp_address>
        <vp_lat>-35.26330411429697</vp_lat>
        <vp_lon>173.21088005084908</vp_lon>
    </votingplace>
    <votingplace vp_id="766" vp_e_no="44">
        <vp_address>Lake Okareka Playcentre Community Hall, 69 Okareka Loop Road, Lake Okareka</vp_address>
        <vp_lat>-38.16982</vp_lat>
        <vp_lon>176.34633</vp_lon>
    </votingplace>
    <votingplace vp_id="767" vp_e_no="18">
        <vp_address>Point Wells Hall, 5 Point Wells Road, Point Wells</vp_address>
        <vp_lat>-36.322211</vp_lat>
        <vp_lon>174.756660</vp_lon>
    </votingplace>
    <votingplace vp_id="768" vp_e_no="32">
        <vp_address>Horeke School, 2230 Horeke Road, Horeke</vp_address>
        <vp_lat>-35.36009052111929</vp_lat>
        <vp_lon>173.57929366077897</vp_lon>
    </votingplace>
    <votingplace vp_id="771" vp_e_no="39">
        <vp_address>Pukekohe Hill School, (corner Ward Street &amp; Green Lane), Pukekohe</vp_address>
        <vp_lat>-37.21234232764857</vp_lat>
        <vp_lon>174.8921443180795</vp_lon>
    </votingplace>
    <votingplace vp_id="772" vp_e_no="64">
        <vp_address>Manaia View School - Te Moemoea, Hall, 64 Murdoch Crescent, Raumanga</vp_address>
        <vp_lat>-35.74584389</vp_lat>
        <vp_lon>174.302763</vp_lon>
    </votingplace>
    <votingplace vp_id="773" vp_e_no="39">
        <vp_address>Pukekohe East School, 137 Runciman Road, Pukekohe</vp_address>
        <vp_lat>-37.18449556</vp_lat>
        <vp_lon>174.945030</vp_lon>
    </votingplace>
    <votingplace vp_id="774" vp_e_no="9">
        <vp_address>Whakatane Intermediate School, 101 James Street, Whakatāne</vp_address>
        <vp_lat>-37.96125506</vp_lat>
        <vp_lon>176.9704429</vp_lon>
    </votingplace>
    <votingplace vp_id="775" vp_e_no="47">
        <vp_address>Waitahuna School, 18 Sunderland Street, Waitahuna</vp_address>
        <vp_lat>-45.98673617842205</vp_lat>
        <vp_lon>169.75863636808896</vp_lon>
    </votingplace>
    <votingplace vp_id="776" vp_e_no="8">
        <vp_address>Long Beach Community Hall, 22 Driver Street, Long Beach</vp_address>
        <vp_lat>-45.75683348</vp_lat>
        <vp_lon>170.6430499</vp_lon>
    </votingplace>
    <votingplace vp_id="777" vp_e_no="38">
        <vp_address>Bombay School, 35 Paparata Road, Bombay</vp_address>
        <vp_lat>-37.18553544</vp_lat>
        <vp_lon>174.9950782</vp_lon>
    </votingplace>
    <votingplace vp_id="778" vp_e_no="47">
        <vp_address>St John&#39;s Rooms, 10 Ross Place, Lawrence</vp_address>
        <vp_lat>-45.9128712</vp_lat>
        <vp_lon>169.6879033</vp_lon>
    </votingplace>
    <votingplace vp_id="780" vp_e_no="38">
        <vp_address>Ramarama School, 126 Ararimu Road, Ramarama</vp_address>
        <vp_lat>-37.14229957</vp_lat>
        <vp_lon>174.9737316</vp_lon>
    </votingplace>
    <votingplace vp_id="781" vp_e_no="39">
        <vp_address>Pukekohe Intermediate School, 44 Queen Street, Pukekohe</vp_address>
        <vp_lat>-37.20320444451704</vp_lat>
        <vp_lon>174.90173013765664</vp_lon>
    </votingplace>
    <votingplace vp_id="782" vp_e_no="39">
        <vp_address>Pukekohe North School, (corner Princes Street &amp; Beatty Road), Pukekohe</vp_address>
        <vp_lat>-37.19558758967911</vp_lat>
        <vp_lon>174.8963760832296</vp_lon>
    </votingplace>
    <votingplace vp_id="783" vp_e_no="39">
        <vp_address>Valley School, 42 East Street, Pukekohe</vp_address>
        <vp_lat>-37.19704077770245</vp_lat>
        <vp_lon>174.9129936469149</vp_lon>
    </votingplace>
    <votingplace vp_id="786" vp_e_no="9">
        <vp_address>Makauri School, 120 King Road, Gisborne</vp_address>
        <vp_lat>-38.62490923996759</vp_lat>
        <vp_lon>177.95632668281016</vp_lon>
    </votingplace>
    <votingplace vp_id="787" vp_e_no="9">
        <vp_address>Manutuke School, 59 Waingake Road, Manutūkē</vp_address>
        <vp_lat>-38.67975546</vp_lat>
        <vp_lon>177.9047738</vp_lon>
    </votingplace>
    <votingplace vp_id="788" vp_e_no="9">
        <vp_address>Patutahi School, 29 Atkins Street, Pātūtahi</vp_address>
        <vp_lat>-38.62584995</vp_lat>
        <vp_lon>177.8881959</vp_lon>
    </votingplace>
    <votingplace vp_id="789" vp_e_no="7">
        <vp_address>Pātuki Manawa Digital Hub, 21 Main Road, Katikati</vp_address>
        <vp_lat>-37.55307249097165</vp_lat>
        <vp_lon>175.9180290929876</vp_lon>
    </votingplace>
    <votingplace vp_id="790" vp_e_no="9">
        <vp_address>Ormond School, 45 Whitmore Road, Gisborne</vp_address>
        <vp_lat>-38.552832723283835</vp_lat>
        <vp_lon>177.92006272520683</vp_lon>
    </votingplace>
    <votingplace vp_id="791" vp_e_no="9">
        <vp_address>Elgin School, 2 Knox Street, Gisborne</vp_address>
        <vp_lat>-38.6550286</vp_lat>
        <vp_lon>177.9939538</vp_lon>
    </votingplace>
    <votingplace vp_id="792" vp_e_no="9">
        <vp_address>Awapuni School, 129 Awapuni Road, Gisborne</vp_address>
        <vp_lat>-38.666712</vp_lat>
        <vp_lon>178.009499</vp_lon>
    </votingplace>
    <votingplace vp_id="793" vp_e_no="9">
        <vp_address>Gisborne Central School Hall, 7 Central Street, Gisborne</vp_address>
        <vp_lat>-38.65509233</vp_lat>
        <vp_lon>178.0307399</vp_lon>
    </votingplace>
    <votingplace vp_id="794" vp_e_no="23">
        <vp_address>Ellerslie War Memorial Hall, 134-138 Main Highway, Ellerslie</vp_address>
        <vp_lat>-36.8981166</vp_lat>
        <vp_lon>174.8107764</vp_lon>
    </votingplace>
    <votingplace vp_id="796" vp_e_no="41">
        <vp_address>National Park School Hall, 31 Carroll Street, National Park</vp_address>
        <vp_lat>-39.17191448015607</vp_lat>
        <vp_lon>175.39774027133063</vp_lon>
    </votingplace>
    <votingplace vp_id="798" vp_e_no="9">
        <vp_address>Te Karaka Area School, 5 Kanakanaia Road, Te Karaka</vp_address>
        <vp_lat>-38.46903237141188</vp_lat>
        <vp_lon>177.86629450749072</vp_lon>
    </votingplace>
    <votingplace vp_id="799" vp_e_no="32">
        <vp_address>Karetu School, 40 Kura Road, Karetu</vp_address>
        <vp_lat>-35.373844352501436</vp_lat>
        <vp_lon>174.15262587321192</vp_lon>
    </votingplace>
    <votingplace vp_id="800" vp_e_no="26">
        <vp_address>Muriwai School, 1684 Wharerata Road, Muriwai</vp_address>
        <vp_lat>-38.756131023861684</vp_lat>
        <vp_lon>177.92063838710953</vp_lon>
    </votingplace>
    <votingplace vp_id="801" vp_e_no="44">
        <vp_address>Reporoa Settlers Hall, 3834 Broadlands Road, Reporoa</vp_address>
        <vp_lat>-38.437082994241486</vp_lat>
        <vp_lon>176.3402289408021</vp_lon>
    </votingplace>
    <votingplace vp_id="802" vp_e_no="32">
        <vp_address>Ōakura Hall, 153 Oakura Road, Ōakura</vp_address>
        <vp_lat>-35.38928603</vp_lat>
        <vp_lon>174.3435562</vp_lon>
    </votingplace>
    <votingplace vp_id="805" vp_e_no="9">
        <vp_address>Makaraka School, 137 Main Road South, Gisborne</vp_address>
        <vp_lat>-38.65123921</vp_lat>
        <vp_lon>177.9604503</vp_lon>
    </votingplace>
    <votingplace vp_id="806" vp_e_no="23">
        <vp_address>Bailey Road School Hall, 19 Bailey Road, Mt Wellington</vp_address>
        <vp_lat>-36.910007391379295</vp_lat>
        <vp_lon>174.8260019579588</vp_lon>
    </votingplace>
    <votingplace vp_id="807" vp_e_no="44">
        <vp_address>Ohauiti Settlers Hall, 459 Ohauiti Road, Ohauiti</vp_address>
        <vp_lat>-37.76314390428188</vp_lat>
        <vp_lon>176.17312073675208</vp_lon>
    </votingplace>
    <votingplace vp_id="808" vp_e_no="32">
        <vp_address>Te Kōpuru School, 9 Norton Street, Te Kōpuru</vp_address>
        <vp_lat>-36.030187410342336</vp_lat>
        <vp_lon>173.92314155875653</vp_lon>
    </votingplace>
    <votingplace vp_id="810" vp_e_no="44">
        <vp_address>Kaharoa School, 296 Kaharoa Road, Kaharoa</vp_address>
        <vp_lat>-37.99590446766141</vp_lat>
        <vp_lon>176.23461293486633</vp_lon>
    </votingplace>
    <votingplace vp_id="811" vp_e_no="62">
        <vp_address>St Andrew&#39;s Presbyterian Church, 42 Glasgow Street, Whanganui</vp_address>
        <vp_lat>-39.91633695</vp_lat>
        <vp_lon>175.0480608</vp_lon>
    </votingplace>
    <votingplace vp_id="812" vp_e_no="39">
        <vp_address>Paerata Rise School, 32 Jonah Lomu Drive, Paerata Rise</vp_address>
        <vp_lat>-37.14140318603307</vp_lat>
        <vp_lon>174.88629740601792</vp_lon>
    </votingplace>
    <votingplace vp_id="813" vp_e_no="65">
        <vp_address>Te Māhuri Mānuka Hornby Primary School, Room 14 &amp; 15, 9 Hei Hei Road, access from carpark, Hornby</vp_address>
        <vp_lat>-43.53853</vp_lat>
        <vp_lon>172.52250</vp_lon>
    </votingplace>
    <votingplace vp_id="815" vp_e_no="23">
        <vp_address>Edmund Hillary Retirement Village Reception Building, 221 Abbotts Way, Remuera</vp_address>
        <vp_lat>-36.890483878309375</vp_lat>
        <vp_lon>174.8284162493076</vp_lon>
    </votingplace>
    <votingplace vp_id="816" vp_e_no="65">
        <vp_address>Barrington Mall, 256 Barrington Street, Spreydon</vp_address>
        <vp_lat>-43.55604042908436</vp_lat>
        <vp_lon>172.62019924548346</vp_lon>
    </votingplace>
    <votingplace vp_id="817" vp_e_no="65">
        <vp_address>Ara Tū Whakatā Gilberthorpe School Hall, 163 Gilberthorpes Road, Hei Hei</vp_address>
        <vp_lat>-43.528886</vp_lat>
        <vp_lon>172.519700</vp_lon>
    </votingplace>
    <votingplace vp_id="818" vp_e_no="62">
        <vp_address>St Anne&#39;s Catholic School, 45 Raine Street, Whanganui East</vp_address>
        <vp_lat>-39.92065815565193</vp_lat>
        <vp_lon>175.06706482925208</vp_lon>
    </votingplace>
    <votingplace vp_id="819" vp_e_no="64">
        <vp_address>Northland Table Tennis Centre, ASB Sports Complex, 193 Western Hills Drive, Kensington</vp_address>
        <vp_lat>-35.708435335443</vp_lat>
        <vp_lon>174.31295003821108</vp_lon>
    </votingplace>
    <votingplace vp_id="820" vp_e_no="11">
        <vp_address>St Aidan&#39;s Anglican Church, Social Lounge, 5 Ascot Avenue, Remuera</vp_address>
        <vp_lat>-36.88180890444475</vp_lat>
        <vp_lon>174.8021115561882</vp_lon>
    </votingplace>
    <votingplace vp_id="821" vp_e_no="11">
        <vp_address>St Andrew&#39;s Church, Lower Room, 100 St Andrews Road, Epsom</vp_address>
        <vp_lat>-36.8942283540941</vp_lat>
        <vp_lon>174.76639277833075</vp_lon>
    </votingplace>
    <votingplace vp_id="822" vp_e_no="6">
        <vp_address>North New Brighton Community Centre, 88 Marine Parade, North New Brighton</vp_address>
        <vp_lat>-43.4949429</vp_lat>
        <vp_lon>172.7265068</vp_lon>
    </votingplace>
    <votingplace vp_id="823" vp_e_no="51">
        <vp_address>Care Homes Team, Team 1, Taken in Taupō</vp_address>
        <vp_lat></vp_lat>
        <vp_lon></vp_lon>
    </votingplace>
    <votingplace vp_id="824" vp_e_no="65">
        <vp_address>Te Manu Tukutuku South Hornby School Hall, 35 Amyes Road, Hornby</vp_address>
        <vp_lat>-43.547323</vp_lat>
        <vp_lon>172.528971</vp_lon>
    </votingplace>
    <votingplace vp_id="825" vp_e_no="54">
        <vp_address>Camberley Community Centre, 703 Kiwi Street, Camberley</vp_address>
        <vp_lat>-39.62609884</vp_lat>
        <vp_lon>176.8165959</vp_lon>
    </votingplace>
    <votingplace vp_id="826" vp_e_no="1">
        <vp_address>Aotea Community Art Gallery, Schoolmaster&#39;s House, 80 Hector Sanderson Road, Claris</vp_address>
        <vp_lat>-36.243398</vp_lat>
        <vp_lon>175.466164</vp_lon>
    </votingplace>
    <votingplace vp_id="827" vp_e_no="47">
        <vp_address>Abbotsford School Hall, 72 North Taieri Road, Abbotsford</vp_address>
        <vp_lat>-45.89340669372164</vp_lat>
        <vp_lon>170.4181383235494</vp_lon>
    </votingplace>
    <votingplace vp_id="829" vp_e_no="38">
        <vp_address>Whitford Hall, 1 Whitford-Maraetai Road, Whitford</vp_address>
        <vp_lat>-36.9458781</vp_lat>
        <vp_lon>174.9640059</vp_lon>
    </votingplace>
    <votingplace vp_id="830" vp_e_no="2">
        <vp_address>Governors Bay Community Centre, 1 Cresswell Avenue, Governors Bay</vp_address>
        <vp_lat>-43.623508</vp_lat>
        <vp_lon>172.649196</vp_lon>
    </votingplace>
    <votingplace vp_id="831" vp_e_no="32">
        <vp_address>Poroti School, 673 Mangakahia Road, Poroti</vp_address>
        <vp_lat>-35.73897345379183</vp_lat>
        <vp_lon>174.1392823272368</vp_lon>
    </votingplace>
    <votingplace vp_id="832" vp_e_no="44">
        <vp_address>St Mark&#39;s Anglican Church, (corner Sunrise Avenue &amp; Te Ngae Road), Ōwhata</vp_address>
        <vp_lat>-38.12933606990535</vp_lat>
        <vp_lon>176.3018809730091</vp_lon>
    </votingplace>
    <votingplace vp_id="833" vp_e_no="44">
        <vp_address>Te Puke High School Hall, 19 Tui Street, Te Puke</vp_address>
        <vp_lat>-37.78843232115363</vp_lat>
        <vp_lon>176.31808051952495</vp_lon>
    </votingplace>
    <votingplace vp_id="834" vp_e_no="40">
        <vp_address>St John Ambulance Rooms, 47 King Street, Temuka</vp_address>
        <vp_lat>-44.246858150351855</vp_lat>
        <vp_lon>171.27789342263029</vp_lon>
    </votingplace>
    <votingplace vp_id="835" vp_e_no="48">
        <vp_address>Manurewa Scout Hall, 23 Alfriston Road, Gallahar Park entrance, Manurewa East</vp_address>
        <vp_lat>-37.02263059133478</vp_lat>
        <vp_lon>174.90166384566706</vp_lon>
    </votingplace>
    <votingplace vp_id="836" vp_e_no="9">
        <vp_address>Mangapapa School, 5 Rua Street, Gisborne</vp_address>
        <vp_lat>-38.64768752</vp_lat>
        <vp_lon>178.0200791</vp_lon>
    </votingplace>
    <votingplace vp_id="837" vp_e_no="44">
        <vp_address>Fairhaven School Hall, 120 Boucher Avenue, Te Puke</vp_address>
        <vp_lat>-37.79651459355771</vp_lat>
        <vp_lon>176.3209610321065</vp_lon>
    </votingplace>
    <votingplace vp_id="838" vp_e_no="15">
        <vp_address>St Patrick&#39;s Catholic Primary School, 108 Jeffreys Road, Bryndwr</vp_address>
        <vp_lat>-43.5114336</vp_lat>
        <vp_lon>172.6035397</vp_lon>
    </votingplace>
    <votingplace vp_id="839" vp_e_no="18">
        <vp_address>Herald Island Community Hall, 44A Ferry Parade, Herald Island</vp_address>
        <vp_lat>-36.77938845887271</vp_lat>
        <vp_lon>174.65650709406114</vp_lon>
    </votingplace>
    <votingplace vp_id="840" vp_e_no="15">
        <vp_address>St Timothy&#39;s Church Hall, 46 Kendal Avenue, Burnside</vp_address>
        <vp_lat>-43.49770168</vp_lat>
        <vp_lon>172.5737142</vp_lon>
    </votingplace>
    <votingplace vp_id="843" vp_e_no="48">
        <vp_address>Mission Heights Primary School Hall, 103 Jeffs Road, Flat Bush</vp_address>
        <vp_lat>-36.96197034181058</vp_lat>
        <vp_lon>174.93097901743536</vp_lon>
    </votingplace>
    <votingplace vp_id="844" vp_e_no="13">
        <vp_address>Te Rapa School, 63 Ashurst Avenue, Pukete</vp_address>
        <vp_lat>-37.73878739</vp_lat>
        <vp_lon>175.2359633</vp_lon>
    </votingplace>
    <votingplace vp_id="845" vp_e_no="64">
        <vp_address>Kokopu School Library, 921 Kokopu Road, Kokopu</vp_address>
        <vp_lat>-35.70736253974288</vp_lat>
        <vp_lon>174.13930997939264</vp_lon>
    </votingplace>
    <votingplace vp_id="846" vp_e_no="48">
        <vp_address>Takanini Hall, 8 Takanini Road, Takanini</vp_address>
        <vp_lat>-37.04342878680837</vp_lat>
        <vp_lon>174.92215245703395</vp_lon>
    </votingplace>
    <votingplace vp_id="847" vp_e_no="62">
        <vp_address>Alton Coronation Hall, 355 Ball Road, Alton</vp_address>
        <vp_lat>-39.6656074863852</vp_lat>
        <vp_lon>174.4457244873047</vp_lon>
    </votingplace>
    <votingplace vp_id="848" vp_e_no="59">
        <vp_address>Waimate Event Centre, 15 Paul Street, Waimate</vp_address>
        <vp_lat>-44.91440425676637</vp_lat>
        <vp_lon>171.09893717440116</vp_lon>
    </votingplace>
    <votingplace vp_id="849" vp_e_no="17">
        <vp_address>Pop-up Voting Services - Marlborough, Various Location, Taken in Kaikōura</vp_address>
        <vp_lat></vp_lat>
        <vp_lon></vp_lon>
    </votingplace>
    <votingplace vp_id="851" vp_e_no="6">
        <vp_address>Haeata Community Campus, 240 Breezes Road, Aranui</vp_address>
        <vp_lat>-43.51502580668094</vp_lat>
        <vp_lon>172.69601897398258</vp_lon>
    </votingplace>
    <votingplace vp_id="852" vp_e_no="44">
        <vp_address>Rotorua Central Mall, Centre Court, 1170 Amohau Street, Rotorua</vp_address>
        <vp_lat>-38.14017978310496</vp_lat>
        <vp_lon>176.2515626086675</vp_lon>
    </votingplace>
    <votingplace vp_id="853" vp_e_no="22">
        <vp_address>St Luke&#39;s Anglican Church Hall, 3 Russell Road, Manurewa</vp_address>
        <vp_lat>-37.02498388925119</vp_lat>
        <vp_lon>174.89325289036742</vp_lon>
    </votingplace>
    <votingplace vp_id="854" vp_e_no="20">
        <vp_address>Hospital &amp; Care Homes, Team 1, Taken in Mana</vp_address>
        <vp_lat></vp_lat>
        <vp_lon></vp_lon>
    </votingplace>
    <votingplace vp_id="856" vp_e_no="34">
        <vp_address>Nga Purapura-Te Wānanga O Raukawa, 145 Tasman Road, Ōtaki</vp_address>
        <vp_lat>-40.7514155176788</vp_lat>
        <vp_lon>175.13494520088548</vp_lon>
    </votingplace>
    <votingplace vp_id="857" vp_e_no="34">
        <vp_address>Horowhenua Learning Centre, 102 Liverpool Street, Levin</vp_address>
        <vp_lat>-40.6349</vp_lat>
        <vp_lon>175.2877</vp_lon>
    </votingplace>
    <votingplace vp_id="858" vp_e_no="34">
        <vp_address>Kapiti Youth Support, 15 Tutanekai Street, Paraparaumu</vp_address>
        <vp_lat>-40.9102342</vp_lat>
        <vp_lon>175.0101488</vp_lon>
    </votingplace>
    <votingplace vp_id="859" vp_e_no="45">
        <vp_address>Lemonwood Grove School, 14 Lemonwood Drive, Rolleston</vp_address>
        <vp_lat>-43.62316402864599</vp_lat>
        <vp_lon>172.38682372956754</vp_lon>
    </votingplace>
    <votingplace vp_id="861" vp_e_no="9">
        <vp_address>Maketu School, 8 School Road, Maketu</vp_address>
        <vp_lat>-37.76198019</vp_lat>
        <vp_lon>176.4559471</vp_lon>
    </votingplace>
    <votingplace vp_id="862" vp_e_no="47">
        <vp_address>Tokomairiro High School Hall, 238 Union Street, Milton</vp_address>
        <vp_lat>-46.11319328</vp_lat>
        <vp_lon>169.9669214</vp_lon>
    </votingplace>
    <votingplace vp_id="863" vp_e_no="45">
        <vp_address>Old Post Shop, 76A High Street, Leeston</vp_address>
        <vp_lat>-43.762546469015525</vp_lat>
        <vp_lon>172.29821165881413</vp_lon>
    </votingplace>
    <votingplace vp_id="864" vp_e_no="7">
        <vp_address>Te Wharekura o Manaia, 22 Goldfields Road, Manaia</vp_address>
        <vp_lat>-36.85125422</vp_lat>
        <vp_lon>175.4786017</vp_lon>
    </votingplace>
    <votingplace vp_id="865" vp_e_no="14">
        <vp_address>Wainuiomata Marae, 153-201 Parkway, Wainuiomata</vp_address>
        <vp_lat>-41.25486112203709</vp_lat>
        <vp_lon>174.94528972251518</vp_lon>
    </votingplace>
    <votingplace vp_id="866" vp_e_no="9">
        <vp_address>Te Kura Mana Māori o Maraenui, 11 Maraenui Pa Road, Houpoto</vp_address>
        <vp_lat>-37.873300</vp_lat>
        <vp_lon>177.583884</vp_lon>
    </votingplace>
    <votingplace vp_id="867" vp_e_no="9">
        <vp_address>Te Kura o Tōrere, 2276 State Highway 35, Tōrere</vp_address>
        <vp_lat>-37.946666</vp_lat>
        <vp_lon>177.4778064</vp_lon>
    </votingplace>
    <votingplace vp_id="869" vp_e_no="9">
        <vp_address>Matatā Public School, 43 Pollen Street, Matatā</vp_address>
        <vp_lat>-37.8932677</vp_lat>
        <vp_lon>176.7590291</vp_lon>
    </votingplace>
    <votingplace vp_id="871" vp_e_no="3">
        <vp_address>Baden-Powell Centre, Ila Park, 46 Harrisfield Drive, Hairini</vp_address>
        <vp_lat>-37.731684152966935</vp_lat>
        <vp_lon>176.1607169949748</vp_lon>
    </votingplace>
    <votingplace vp_id="872" vp_e_no="9">
        <vp_address>Omarumutu School, 141 Omarumutu Road, Omarumutu</vp_address>
        <vp_lat>-37.99658988049753</vp_lat>
        <vp_lon>177.40498262602787</vp_lon>
    </votingplace>
    <votingplace vp_id="873" vp_e_no="2">
        <vp_address>St Andrew&#39;s Anglican Church, 148 Main Road, Redcliffs</vp_address>
        <vp_lat>-43.56013156</vp_lat>
        <vp_lon>172.7362501</vp_lon>
    </votingplace>
    <votingplace vp_id="874" vp_e_no="13">
        <vp_address>Te Manaakitanga Marae, Melville High School, 6 Collins Road, Melville</vp_address>
        <vp_lat>-37.81628839166256</vp_lat>
        <vp_lon>175.28131377428556</vp_lon>
    </votingplace>
    <votingplace vp_id="876" vp_e_no="4">
        <vp_address>Care Homes, Team 1, Taken in Botany</vp_address>
        <vp_lat></vp_lat>
        <vp_lon></vp_lon>
    </votingplace>
    <votingplace vp_id="877" vp_e_no="9">
        <vp_address>Ōpōtiki College Hall, 22 St John Street, Ōpōtiki</vp_address>
        <vp_lat>-38.01313191</vp_lat>
        <vp_lon>177.2881033</vp_lon>
    </votingplace>
    <votingplace vp_id="878" vp_e_no="40">
        <vp_address>Timaru Indoor Bowls Stadium, opposite Northtown Mall, 20 Ranui Avenue, Timaru</vp_address>
        <vp_lat>-44.38359785613154</vp_lat>
        <vp_lon>171.23789713129761</vp_lon>
    </votingplace>
    <votingplace vp_id="881" vp_e_no="33">
        <vp_address>Ngā Hau e Whā o Paparārangi, 30 Ladbrooke Drive, Newlands</vp_address>
        <vp_lat>-41.22205895244911</vp_lat>
        <vp_lon>174.836457952422</vp_lon>
    </votingplace>
    <votingplace vp_id="882" vp_e_no="9">
        <vp_address>Tāneatua School, 44 McKenzie Street, Tāneatua</vp_address>
        <vp_lat>-38.06510235</vp_lat>
        <vp_lon>177.0093437</vp_lon>
    </votingplace>
    <votingplace vp_id="883" vp_e_no="45">
        <vp_address>Lincoln Event Centre, 15 Meijer Drive, Lincoln</vp_address>
        <vp_lat>-43.63635305972146</vp_lat>
        <vp_lon>172.4828365533794</vp_lon>
    </votingplace>
    <votingplace vp_id="884" vp_e_no="9">
        <vp_address>Woodlands School, 168 Dip Road, Ōpōtiki</vp_address>
        <vp_lat>-38.03843475</vp_lat>
        <vp_lon>177.2630901</vp_lon>
    </votingplace>
    <votingplace vp_id="885" vp_e_no="9">
        <vp_address>Kutarere School, 461 State Highway 2, Kutarere</vp_address>
        <vp_lat>-38.04353883229461</vp_lat>
        <vp_lon>177.14772651768735</vp_lon>
    </votingplace>
    <votingplace vp_id="886" vp_e_no="15">
        <vp_address>Bush Inn Centre, (corner Riccarton Road &amp; Waimairi Road), Upper Riccarton</vp_address>
        <vp_lat>-43.529881</vp_lat>
        <vp_lon>172.575024</vp_lon>
    </votingplace>
    <votingplace vp_id="887" vp_e_no="20">
        <vp_address>Takapūwāhia Te Puna Ora, (corner Te Hiko Street &amp; Ngatitoa Street), Takapūwāhia</vp_address>
        <vp_lat>-41.12615822331102</vp_lat>
        <vp_lon>174.83554194945987</vp_lon>
    </votingplace>
    <votingplace vp_id="888" vp_e_no="9">
        <vp_address>Tikitiki School, 33 Rangitukia Road, Tikitiki</vp_address>
        <vp_lat>-37.792982817655094</vp_lat>
        <vp_lon>178.41268835033583</vp_lon>
    </votingplace>
    <votingplace vp_id="889" vp_e_no="9">
        <vp_address>Tolaga Bay Area School, 24 Resolution Street, Tolaga Bay</vp_address>
        <vp_lat>-38.3727377</vp_lat>
        <vp_lon>178.3002325</vp_lon>
    </votingplace>
    <votingplace vp_id="890" vp_e_no="9">
        <vp_address>Whangara School, 44 Pa Road, Whangara</vp_address>
        <vp_lat>-38.55633603</vp_lat>
        <vp_lon>178.2154695</vp_lon>
    </votingplace>
    <votingplace vp_id="891" vp_e_no="9">
        <vp_address>Hatea-A-Rangi School, 6 School Road, Tokomaru Bay</vp_address>
        <vp_lat>-38.1318986</vp_lat>
        <vp_lon>178.315159</vp_lon>
    </votingplace>
    <votingplace vp_id="892" vp_e_no="34">
        <vp_address>Te Kokiri Development Consultancy Inc, 18 Hokio Beach Road, Levin</vp_address>
        <vp_lat>-40.6319</vp_lat>
        <vp_lon>175.2741</vp_lon>
    </votingplace>
    <votingplace vp_id="893" vp_e_no="9">
        <vp_address>Whakatane Mobile Team, Team 1, Taken in East Coast</vp_address>
        <vp_lat></vp_lat>
        <vp_lon></vp_lon>
    </votingplace>
    <votingplace vp_id="894" vp_e_no="41">
        <vp_address>Whare Kura Morehu ō Ratana, Kiatere Street, Rātana</vp_address>
        <vp_lat>-40.036807734491035</vp_lat>
        <vp_lon>175.17569870278132</vp_lon>
    </votingplace>
    <votingplace vp_id="896" vp_e_no="40">
        <vp_address>Hinds School, 54 Reed Street, Hinds</vp_address>
        <vp_lat>-44.00124003650187</vp_lat>
        <vp_lon>171.56503033299916</vp_lon>
    </votingplace>
    <votingplace vp_id="897" vp_e_no="9">
        <vp_address>Te Waha O Rerekohu Area School, 3 Arewhana Street, Te Araroa</vp_address>
        <vp_lat>-37.63375686</vp_lat>
        <vp_lon>178.3658065</vp_lon>
    </votingplace>
    <votingplace vp_id="898" vp_e_no="10">
        <vp_address>Pinehurst School, 75 Bush Road, Albany</vp_address>
        <vp_lat>-36.73988478817854</vp_lat>
